City_ID,City,Lat,Lng,Max Temp,Humidity,Cloudiness,Wind Speed,Country,Date
0,port-aux-francais,-49.35,70.2167,6.38,79,58,8.54,TF,1712009565
1,alesund,62.4723,6.1549,4.63,82,75,12.35,NO,1712009531
2,coracao de jesus,-16.6853,-44.365,24.08,80,93,1.13,BR,1712009580
3,edmundston,47.3737,-68.3251,5.63,38,40,3.09,CA,1712009794
4,grytviken,-54.2811,-36.5092,1.49,82,27,4.41,GS,1712009795
5,yellowknife,62.456,-114.3525,-4.21,83,100,4.02,CA,1712009796
6,georgetown,5.4112,100.3354,27.96,89,20,0.0,MY,1712009469
7,carutapera,-1.195,-46.02,25.88,90,27,2.25,BR,1712009798
8,moyynkum,44.2914,72.9469,5.52,59,78,4.34,KZ,1712009800
9,kassala,15.451,36.4,29.84,13,58,5.11,SD,1712009801
10,yangiobod,41.1192,70.0941,6.51,42,89,2.1,UZ,1712009802
11,luderitz,-26.6481,15.1594,17.19,66,0,7.93,NA,1712009804
12,blackmans bay,-43.0167,147.3167,15.41,95,100,1.55,AU,1712009805
13,waitangi,-43.9535,-176.5597,14.34,82,100,0.45,NZ,1712009806
14,mora,11.0461,14.1401,31.72,13,100,2.17,CM,1712009572
15,levuka,50.1834,-105.4011,11.1,43,8,8.5,CA,1712009810
16,saldanha,-33.0117,17.9442,15.5,87,37,4.22,ZA,1712009811
17,klyuchi,52.2667,79.1667,3.06,70,100,3.79,RU,1712009625
18,ust-nera,64.5667,143.2,-15.63,89,63,0.41,RU,1712009814
19,ilulissat,69.2167,-51.1,-2.99,86,75,0.0,GL,1712009815
20,energodar,47.4987,34.6574,11.72,71,49,3.38,UA,1712009816
21,iqaluit,63.7506,-68.5145,0.39,86,100,11.18,CA,1712009685
22,lompoc,34.6391,-120.4579,22.79,59,0,5.66,US,1712009819
23,kaoma,-14.7833,24.8,21.16,70,95,0.72,ZM,1712009820
24,usinsk,65.9939,57.5281,-7.18,90,100,5.81,RU,1712009821
25,petropavlovsk-kamchatsky,53.0452,158.6483,-0.67,81,0,6.71,RU,1712009823
26,astrakhan,46.3497,48.0408,3.93,93,40,4.0,RU,1712009824
27,invercargill,-46.4,168.35,14.45,79,8,0.89,NZ,1712009825
28,birjand,32.8663,59.2211,10.71,49,0,2.31,IR,1712009826
29,mugumu,-1.85,34.7,16.37,93,61,1.08,TZ,1712009828
30,castillos,-34.1667,-53.8333,14.64,88,100,5.43,UY,1712009829
31,hithadhoo,-0.6,73.0833,29.04,74,100,1.98,MV,1712009830
32,puerto la cruz,10.2167,-64.6167,26.31,80,99,7.42,VE,1712009656
33,ust'-kulom,61.6864,53.6902,2.53,95,100,5.58,RU,1712009833
34,hami,42.8,93.45,8.96,46,100,4.16,CN,1712009834
35,al jawf,29.5,38.75,19.82,46,6,4.28,SA,1712009835
36,bredasdorp,-34.5322,20.0403,16.78,78,31,7.11,ZA,1712009837
37,bou tlelis,35.5727,-0.8996,12.94,68,49,2.99,DZ,1712009776
38,qaqortoq,60.7167,-46.0333,-5.26,79,13,1.3,GL,1712009839
39,tazacorte,28.629,-17.9293,18.54,86,100,0.89,ES,1712009841
40,porto novo,6.4965,2.6036,27.88,85,100,2.61,BJ,1712009842
41,altagracia de orituco,9.8601,-66.3814,27.5,62,93,4.35,VE,1712009843
42,longyearbyen,78.2186,15.6401,-16.09,72,75,2.57,SJ,1712009844
43,san antonio de pale,-1.4014,5.6325,28.99,84,95,5.49,GQ,1712009846
44,college,64.8569,-147.8028,4.33,36,40,3.09,US,1712009847
45,mogocha,53.7333,119.7667,-14.62,98,93,1.25,RU,1712009848
46,ad dabbah,18.05,30.95,26.03,18,0,3.82,SD,1712009849
47,albany,42.6001,-73.9662,13.71,50,99,0.45,US,1712009505
48,jamestown,42.097,-79.2353,13.07,54,0,4.63,US,1712009758
49,haiku-pauwela,20.9219,-156.3051,26.25,74,40,10.8,US,1712009853
50,hermanus,-34.4187,19.2345,16.0,85,85,5.9,ZA,1712009855
51,la passe,45.5549,-0.8967,10.55,79,72,9.12,FR,1712009856
52,chonchi,-42.6128,-73.8092,13.56,76,63,1.07,CL,1712009857
53,hengchun,22.0042,120.7439,24.34,81,0,3.8,TW,1712009859
54,novyy urgal,51.0736,132.5642,-9.01,92,60,0.49,RU,1712009860
55,puerto natales,-51.7236,-72.4875,7.07,89,100,2.1,CL,1712009836
56,ribeira grande,38.5167,-28.7,16.54,83,98,6.71,PT,1712009862
57,whitehorse,60.7161,-135.0538,1.84,43,100,3.58,CA,1712009600
58,santa ana,33.7456,-117.8678,24.72,51,20,5.66,US,1712009578
59,floro,61.5996,5.0328,6.04,75,77,2.57,NO,1712009866
60,oltinko'l,40.8011,72.1634,12.85,30,60,1.71,UZ,1712009868
61,kroya,-7.6331,109.2461,26.11,90,100,2.1,ID,1712009869
62,puerto ayora,-0.7393,-90.3518,28.98,89,34,4.92,EC,1712009870
63,samtse,26.899,89.0995,20.07,48,1,2.95,BT,1712009871
64,bethel,41.3712,-73.414,12.05,46,75,2.06,US,1712009763
65,erenhot,43.6475,111.9767,3.09,71,84,3.33,CN,1712009874
66,vadso,70.0744,29.7487,-6.51,79,20,9.77,NO,1712009875
67,karaton,-6.3424,106.1045,23.75,95,47,0.3,ID,1712009877
68,nieuw amsterdam,5.8833,-55.0833,27.74,73,89,5.64,SR,1712009878
69,zaozersk,69.4005,32.4476,-14.31,93,44,2.7,RU,1712009879
70,wenchang,30.904,118.4887,19.11,95,100,1.13,CN,1712009880
71,orapa,-21.2833,25.3667,21.06,66,86,3.84,BW,1712009882
72,iskateley,67.6803,53.1512,-9.43,87,100,4.92,RU,1712009883
73,hammerfest,70.6634,23.6821,-8.75,79,40,5.66,NO,1712009884
74,hastings,50.8552,0.5729,10.63,85,8,8.74,GB,1712009885
75,vilyuchinsk,52.9306,158.4028,0.15,78,41,3.92,RU,1712009887
76,ushuaia,-54.8,-68.3,9.81,53,40,6.69,AR,1712009632
77,kota kinabalu,5.9749,116.0724,26.99,89,20,2.24,MY,1712009891
78,beloyarskiy,63.7119,66.6722,-12.22,95,37,1.79,RU,1712009892
79,enewetak,11.3474,162.3373,26.96,71,89,7.16,MH,1712009893
80,constitucion,-35.3333,-72.4167,15.43,61,41,5.34,CL,1712009849
81,puerto aysen,-45.4,-72.7,7.51,100,100,1.96,CL,1712009898
82,saladan,7.6134,99.0365,28.68,77,24,2.23,TH,1712009900
83,edinburgh of the seven seas,-37.0676,-12.3116,18.57,91,72,9.79,SH,1712009901
84,onega,63.9061,38.1404,2.04,99,100,2.81,RU,1712009903
85,maraba,-5.3686,-49.1178,28.1,89,40,1.54,BR,1712009805
86,kodiak,57.79,-152.4072,0.73,55,40,8.75,US,1712009905
87,port alfred,-33.5906,26.891,19.4,94,94,5.3,ZA,1712009906
88,nemuro,43.3236,145.575,0.68,81,100,4.9,JP,1712009658
89,los altos,37.3852,-122.1141,23.65,38,0,3.09,US,1712009735
90,lihue,21.9789,-159.3672,26.58,83,100,6.69,US,1712009639
91,sur,22.5667,59.5289,25.52,56,32,0.82,OM,1712009911
92,mirpur mathelo,28.0227,69.5489,25.01,16,87,2.07,PK,1712009912
93,hamilton,39.1834,-84.5333,21.35,78,40,2.68,US,1712009873
94,nar'yan-mar,67.6713,53.087,-9.38,87,100,4.92,RU,1712009915
95,dudinka,69.4058,86.1778,-15.18,90,100,6.26,RU,1712009916
96,mount gambier,-37.8333,140.7667,14.68,84,57,4.91,AU,1712009917
97,adamstown,-25.066,-130.1015,23.59,78,97,6.1,PN,1712009918
98,palmer,42.1584,-72.3287,13.7,44,75,1.54,US,1712009919
99,bardai,11.65,7.2333,29.73,13,100,1.45,NG,1712009920
100,codrington,-38.2667,141.9667,14.8,85,75,5.66,AU,1712009921
101,cidreira,-30.1811,-50.2056,23.44,87,5,6.32,BR,1712009922
102,margaret river,-33.95,115.0667,10.06,87,1,5.04,AU,1712009923
103,fort st. john,56.2499,-120.8529,9.94,16,75,7.2,CA,1712009924
104,lepsy,46.235,78.9456,4.68,55,1,2.82,KZ,1712009925
105,the dalles,45.5946,-121.1787,23.93,40,0,9.77,US,1712009825
106,tura,25.5198,90.2201,20.5,76,5,2.43,IN,1712009927
107,mabaruma,8.2,-59.7833,26.92,79,82,2.51,GY,1712009928
108,atafu village,-8.5421,-172.5159,29.65,72,10,5.46,TK,1712009929
109,khorixas,-20.3667,14.9667,24.47,35,65,3.76,NA,1712009931
110,chandler,33.3062,-111.8412,18.99,57,40,3.13,US,1712009931
111,adrar,20.5022,-10.0711,29.77,18,13,5.1,MR,1712009933
112,constantia,44.1833,28.65,15.39,72,34,4.54,RO,1712009934
113,avarua,-21.2078,-159.775,30.03,66,20,7.2,CK,1712009936
114,tazovsky,67.4667,78.7,-8.97,95,100,4.13,RU,1712009937
115,smithers,54.7804,-127.1743,6.18,65,100,5.14,CA,1712009938
116,visby,57.6409,18.296,2.24,100,100,8.75,SE,1712009939
117,motril,36.7507,-3.5179,14.59,49,100,4.22,ES,1712009941
118,howrah,22.5892,88.3103,29.0,84,20,2.06,IN,1712009942
119,guatrache,-37.6678,-63.5302,18.21,27,0,1.93,AR,1712009943
120,ternitz,47.7156,16.0357,9.84,89,100,4.43,AT,1712009944
121,acucena,-19.0731,-42.5464,21.29,93,85,0.63,BR,1712009945
122,papatowai,-46.5619,169.4708,13.88,68,54,0.57,NZ,1712009946
123,presidente olegario,-18.4178,-46.4181,22.44,82,84,0.99,BR,1712009947
124,remire-montjoly,4.9167,-52.2667,28.02,83,20,2.06,GF,1712009949
125,salisbury,51.0693,-1.7957,10.36,89,100,5.66,GB,1712009912
126,pisco,-13.7,-76.2167,25.03,69,0,7.72,PE,1712009952
127,egilsstadir,65.2653,-14.3948,-7.05,93,40,3.09,IS,1712009953
128,san ignacio de velasco,-16.3667,-60.95,28.32,66,97,1.61,BO,1712009957
129,nogliki,51.8333,143.1667,0.19,91,100,1.34,RU,1712009959
130,keflavik,64.0049,-22.5624,-3.76,54,20,11.32,IS,1712009960
131,karymskoye,51.6167,114.35,-3.48,60,97,6.3,RU,1712009946
132,yomra,40.9541,39.8641,14.89,58,0,2.06,TR,1712009962
133,vorgashor,67.5833,63.95,-17.43,99,100,3.19,RU,1712009964
134,bargaal,11.2864,51.0773,26.76,82,24,1.39,SO,1712009965
135,wynyard,-41.0,145.7167,14.46,93,100,2.54,AU,1712009967
136,ostersund,63.1792,14.6357,-1.75,69,100,4.92,SE,1712009968
137,sao vicente,-23.9631,-46.3919,26.26,26,20,2.96,BR,1712009950
138,lahore,31.5497,74.3436,19.99,64,97,2.57,PK,1712009297
139,utrik,11.2278,169.8474,26.96,69,100,7.73,MH,1712009972
140,bonito,-21.1211,-56.4819,22.92,97,97,2.12,BR,1712009973
141,broken hill,-31.95,141.4333,14.8,66,0,7.55,AU,1712009974
142,qandala,11.472,49.8728,28.67,69,9,2.69,SO,1712009838
143,st. john's,47.5649,-52.7093,2.1,95,100,3.6,CA,1712009883
144,fuman,37.2273,49.3142,13.11,68,0,0.89,IR,1712009977
145,aasiaat,68.7098,-52.8699,-5.14,82,69,1.43,GL,1712009979
146,bilibino,68.0546,166.4372,-19.89,70,97,0.92,RU,1712009980
147,nyaunglebin,17.95,96.7333,24.57,71,0,1.9,MM,1712009981
148,forbes,-33.3833,148.0167,19.95,83,98,4.18,AU,1712009750
149,port elizabeth,-33.918,25.5701,17.83,75,100,2.06,ZA,1712009983
150,aberdeen,57.1437,-2.0981,6.41,99,100,4.12,GB,1712009973
151,hawaiian paradise park,19.5933,-154.9731,26.04,76,100,3.6,US,1712009782
152,minas de marcona,-15.2119,-75.1103,20.32,66,87,5.75,PE,1712009837
153,mount pearl,47.5166,-52.7813,1.09,95,100,3.6,CA,1712009987
154,aioun,16.6614,-9.6149,35.77,13,51,4.99,MR,1712009988
155,beberibe,-4.1797,-38.1306,26.43,83,83,3.27,BR,1712009989
156,peterhead,57.5058,-1.7981,6.36,86,100,8.67,GB,1712009990
157,stanley,54.868,-1.6985,3.77,97,20,1.54,GB,1712009991
158,wanxian,30.8039,108.3897,18.85,96,100,1.63,CN,1712009993
159,fortuna,40.5982,-124.1573,18.85,68,0,6.69,US,1712009994
160,weno,7.4515,151.8468,29.97,84,100,4.12,FM,1712009995
161,rikaze,29.25,88.8833,3.29,51,23,1.89,CN,1712009996
162,nyandoma,61.669,40.1991,6.2,100,100,3.28,RU,1712009998
163,rongelap,11.1635,166.8941,27.28,72,100,7.58,MH,1712009999
164,maceio,-9.6658,-35.7353,27.69,89,20,2.57,BR,1712009912
165,jayapura,-2.5333,140.7,26.66,84,90,1.31,ID,1712010002
166,broome,42.2506,-75.833,12.43,62,40,1.54,US,1712010004
167,sogndal,61.2283,7.1003,7.21,56,100,3.6,NO,1712010005
168,sungai penuh,-2.0833,101.3833,19.01,97,94,0.71,ID,1712010007
169,tralee,52.2704,-9.7026,7.54,90,87,1.4,IE,1712010008
170,isafjordur,66.0755,-23.124,-3.99,78,99,11.34,IS,1712010009
171,sitka,57.0531,-135.33,6.94,57,100,9.77,US,1712010010
172,severo-yeniseyskiy,60.3725,93.0408,-16.35,97,100,1.34,RU,1712010011
173,ta`u,-14.2336,-169.5144,29.04,78,93,10.49,AS,1712010012
174,alice springs,-23.7,133.8833,22.34,41,75,3.13,AU,1712010014
175,west island,-12.1568,96.8225,26.99,83,40,5.66,CC,1712010015
176,itamaraca,-7.7478,-34.8256,29.03,78,80,2.88,BR,1712009892
177,santana,-0.0583,-51.1817,30.1,79,40,4.63,BR,1712009884
178,vilhena,-12.7406,-60.1458,22.28,96,95,0.75,BR,1712009741
179,vanimo,-2.6741,141.3028,26.71,88,88,2.03,PG,1712010019
180,coquimbo,-29.9533,-71.3436,19.63,63,5,2.63,CL,1712009463
181,angaur state,6.906,134.13,27.72,79,78,8.65,PW,1712010022
182,nemyriv,48.9708,28.8378,15.7,56,67,3.46,UA,1712010023
183,la ronge,55.1001,-105.2842,5.14,56,75,13.89,CA,1712010024
184,udachny,66.4167,112.4,-16.06,96,99,4.33,RU,1712010025
185,luwuk,-0.9516,122.7875,26.07,86,100,1.17,ID,1712010026
186,kerikeri,-35.2268,173.9474,18.28,84,66,0.67,NZ,1712010027
187,igarka,67.4667,86.5833,-13.08,91,100,7.62,RU,1712010028
188,mont-dore,-22.2833,166.5833,27.99,99,85,3.39,NC,1712010029
189,hermansverk,61.1846,6.8502,7.25,56,97,3.6,NO,1712010031
190,tadine,-21.55,167.8833,25.68,69,55,5.33,NC,1712010032
191,yeniseysk,58.4497,92.1703,-14.21,99,100,1.82,RU,1712010032
192,maputo,-25.9653,32.5892,20.82,88,20,0.0,MZ,1712010034
193,tucuma,-0.1833,-50.05,26.09,89,83,2.56,BR,1712010035
194,ha'il,27.5219,41.6907,18.01,59,0,2.06,SA,1712010036
195,olinda,-8.0089,-34.8553,27.85,89,75,5.14,BR,1712010037
196,afaahiti,-17.75,-149.2833,29.93,73,86,8.38,PF,1712010038
197,saipan,15.1355,145.701,28.39,1,40,8.75,MP,1712010039
198,arti,56.4234,58.5328,1.22,92,100,2.37,RU,1712010040
199,polyarnyy,69.1989,33.4478,-9.62,77,98,4.82,RU,1712010043
200,quatre cocos,-20.2078,57.7625,25.06,89,80,5.82,MU,1712010044
201,gadzhiyevo,69.2551,33.3362,-9.32,77,99,4.71,RU,1712010045
202,margate,51.3813,1.3862,10.17,83,2,2.68,GB,1712010047
203,zavodskoy,43.4597,132.2922,0.82,93,1,1.0,RU,1712009780
204,urangan,-25.3,152.9,24.0,94,1,2.68,AU,1712010049
205,magadan,59.5667,150.8,-6.8,75,99,4.03,RU,1712010051
206,namibe,-15.1961,12.1522,24.02,81,62,0.96,AO,1712009847
207,santiago de cao,-7.9589,-79.2392,22.07,83,40,5.14,PE,1712010053
208,mananjary,-21.2167,48.3333,23.85,90,95,3.12,MG,1712010055
209,kuta,-8.7233,115.1723,24.97,94,75,2.57,ID,1712010056
210,daru,-9.0763,143.2092,26.4,89,100,3.65,PG,1712010058
211,north canton,40.8759,-81.4023,14.38,70,100,4.12,US,1712010060
212,narasannapeta,18.4167,84.05,27.02,79,35,4.64,IN,1712010061
213,wailua homesteads,22.0669,-159.378,25.24,83,100,6.69,US,1712010062
214,al hufuf,25.3646,49.5653,22.19,40,0,1.54,SA,1712010064
215,tailai,46.3833,123.4,-0.18,38,95,1.04,CN,1712010065
216,port lincoln,-34.7333,135.8667,15.87,72,9,6.99,AU,1712010066
217,carnarvon,-24.8667,113.6333,26.68,47,31,6.09,AU,1712010068
218,barcelos,41.5388,-8.6151,13.08,91,67,3.62,PT,1712010069
219,tiksi,71.6872,128.8694,-10.49,92,100,2.38,RU,1712010070
220,punta arenas,-53.15,-70.9167,9.06,66,75,5.66,CL,1712009550
221,sinop,41.7711,34.8709,16.19,45,4,3.4,TR,1712010073
222,santa isabel,-23.3156,-46.2214,22.61,87,41,1.25,BR,1712010074
223,luanda,-8.8368,13.2343,26.96,88,100,3.72,AO,1712009940
224,norderney,53.7,7.15,9.01,89,100,8.33,DE,1712010077
225,fort bragg,35.139,-79.006,28.23,51,0,5.14,US,1712010078
226,roosevelt,33.9668,-103.4505,10.12,32,97,12.28,US,1712010079
227,guaruja,-23.9931,-46.2564,24.38,26,16,4.11,BR,1712010007
228,qamdo,31.1667,97.2333,-2.95,63,32,2.53,CN,1712010082
229,idritsa,56.3316,28.8988,12.49,80,69,1.53,RU,1712010077
230,kailua-kona,19.6406,-155.9956,26.95,79,40,4.12,US,1712009924
231,fale old settlement,-9.3852,-171.2468,29.61,74,27,6.23,TK,1712010085
232,ta'if,21.2703,40.4158,16.56,59,38,2.55,SA,1712010087
233,elimaki,60.7167,26.4667,5.62,88,100,3.36,FI,1712010088
234,asau,46.4333,26.4,18.38,43,37,2.76,RO,1712010089
235,arraial do cabo,-22.9661,-42.0278,23.98,78,20,2.57,BR,1712010026
236,barisal,22.7019,90.3711,25.08,95,1,2.42,BD,1712009732
237,coahuayana de hidalgo,18.7,-103.6583,30.15,50,59,3.39,MX,1712010094
238,gouyave,12.1646,-61.7296,28.43,70,20,5.14,GD,1712010095
239,newman,37.3138,-121.0208,21.75,48,0,4.02,US,1712010096
240,andergrove,-21.0833,149.1833,27.03,79,9,4.51,AU,1712010097
241,cooma,-36.2333,149.1333,15.46,87,100,4.85,AU,1712010098
242,antsiranana,-12.2787,49.2917,25.39,91,100,3.86,MG,1712010100
243,la barca,20.2833,-102.5667,30.8,17,97,5.63,MX,1712010101
244,taroa,8.7058,171.2275,27.47,76,100,8.44,MH,1712010102
245,talnakh,69.4865,88.3972,-16.48,97,100,5.81,RU,1712009882
246,ushtobe,45.2514,77.9838,5.36,62,2,3.22,KZ,1712010105
247,itacoatiara,-3.1431,-58.4442,26.69,88,83,1.21,BR,1712009929
248,essaouira,31.5125,-9.77,17.72,72,75,1.03,MA,1712010107
249,olonkinbyen,70.9221,-8.7187,-5.49,56,100,5.82,SJ,1712010108
250,bikenibeu village,1.3673,173.1241,29.98,79,40,3.09,KI,1712010110
251,al hudaydah,14.7978,42.9545,27.49,78,87,9.65,YE,1712010111
252,muynoq,43.7683,59.0214,8.93,67,3,3.82,UZ,1712010112
253,kone,-21.0595,164.8658,26.74,62,13,2.0,NC,1712010113
254,freeport,40.6576,-73.5832,12.48,71,100,1.79,US,1712009985
255,cabedelo,-6.9811,-34.8339,28.37,82,88,4.1,BR,1712009977
256,fort wellington,6.4,-57.6,27.67,76,30,4.09,GY,1712010117
257,siwa oasis,29.2041,25.5195,23.29,30,0,4.53,EG,1712010118
258,orhei,47.3831,28.8231,17.66,50,68,3.71,MD,1712009936
259,loango,-4.6719,11.8312,27.81,89,20,1.54,CG,1712010121
260,ancud,-41.8697,-73.8203,11.82,64,83,1.26,CL,1712009854
261,new norfolk,-42.7826,147.0587,16.07,98,100,0.94,AU,1712010123
262,smidovich,48.6,133.8167,-0.82,71,11,1.56,RU,1712010124
263,baoqing,46.3317,132.2111,-0.34,65,5,3.43,CN,1712010125
264,saint-pol-de-leon,48.6833,-3.9833,9.81,78,89,8.05,FR,1712010126
265,lamesa,32.7376,-101.951,16.96,22,60,17.01,US,1712010127
266,paro,27.4305,89.4133,8.64,87,63,0.72,BT,1712010128
267,koulikoro,14.0,-7.75,33.8,11,0,4.2,ML,1712010129
268,mejit,10.2753,170.8646,27.17,71,100,8.53,MH,1712010132
269,beauvais,49.4167,2.0,9.14,91,20,4.63,FR,1712010133
270,tual,-5.6667,132.75,28.23,78,100,2.26,ID,1712010134
271,saint-francois,46.4154,3.9054,8.69,73,100,4.12,FR,1712009867
272,plettenberg bay,-34.0527,23.3716,15.86,77,63,3.3,ZA,1712010136
273,rabo de peixe,37.8,-25.5833,15.73,82,75,11.83,PT,1712010137
274,saint joseph,39.7686,-94.8466,22.78,76,20,6.17,US,1712010138
275,hamlin,43.3031,-77.9211,11.9,53,65,0.45,US,1712010140
276,bosaso,11.2842,49.1816,27.21,77,9,1.01,SO,1712010141
277,cova figueira,14.8905,-24.2934,19.88,80,5,6.08,CV,1712010142
278,anadyr,64.75,177.4833,-16.72,71,40,4.0,RU,1712010143
279,lebu,-37.6167,-73.65,13.49,71,90,3.71,CL,1712010145
280,lucapa,-8.4192,20.7447,19.58,94,100,1.26,AO,1712010146
281,papao,-17.75,-149.55,30.82,75,74,9.55,PF,1712010147
282,tortoli,39.9256,9.6572,14.9,58,0,14.92,IT,1712010148
283,shangjie,26.0864,119.1847,18.2,96,67,0.52,CN,1712010149
284,uturoa,-16.7333,-151.4333,28.13,76,94,8.48,PF,1712010151
285,lerwick,60.1545,-1.1494,6.0,74,100,12.33,GB,1712010152
286,san patricio,28.017,-97.5169,31.05,63,99,7.4,US,1712010153
287,sault ste. marie,46.5168,-84.3333,6.31,50,20,5.14,CA,1712010142
288,boa vista,2.8197,-60.6733,34.99,34,40,3.6,BR,1712010155
289,praia da vitoria,38.7333,-27.0667,16.14,72,20,8.63,PT,1712010156
290,riohacha,11.5444,-72.9072,30.06,70,20,7.72,CO,1712010157
291,hadibu,12.65,54.0333,26.23,79,12,3.07,YE,1712010160
292,korhogo,9.45,-5.6333,32.07,36,64,2.41,CI,1712010161
293,tabas,33.5959,56.9244,14.46,33,0,2.9,IR,1712010164
294,thompson,55.7435,-97.8558,1.09,40,75,4.12,CA,1712010167
295,la sarre,48.8002,-79.1996,0.43,66,58,2.44,CA,1712010168
296,chillicothe,39.3331,-82.9824,20.14,71,75,2.57,US,1712010169
297,uyuni,-20.4597,-66.825,15.52,18,2,4.1,BO,1712010171
298,adre,13.4667,22.2,26.13,9,100,4.54,TD,1712010172
299,penzance,50.1186,-5.5371,9.38,88,47,10.54,GB,1712010174
300,selfoss,63.9331,-20.9971,-4.42,47,0,11.62,IS,1712010175
301,verdal,63.7933,11.4817,3.02,98,100,1.36,NO,1712010176
302,cadale,2.7603,46.3222,28.49,76,25,4.75,SO,1712010178
303,dunedin,-45.8742,170.5036,13.94,63,41,1.48,NZ,1712009988
304,east london,-33.0153,27.9116,21.37,91,88,3.18,ZA,1712010181
305,guiuan,11.0333,125.7247,27.54,78,91,6.76,PH,1712010182
306,mangrol,21.1167,70.1167,24.27,64,60,4.28,IN,1712010184
307,dolores hidalgo cuna de la independencia nacional,21.1561,-100.9308,30.44,12,64,8.91,MX,1712010185
308,crane,31.3974,-102.3501,20.79,27,71,15.93,US,1712010188
309,kidal,18.4411,1.4078,33.88,14,19,4.06,ML,1712010190
310,jertih,5.7336,102.4897,24.97,93,100,1.26,MY,1712010191
311,puqi,29.7167,113.8833,19.31,98,100,1.05,CN,1712010193
312,saint-joseph,-21.3667,55.6167,24.21,93,100,7.18,RE,1712010194
313,heroica caborca,30.7167,-112.15,17.22,45,73,7.78,MX,1712010195
314,nuuk,64.1835,-51.7216,-0.66,74,40,4.12,GL,1712010057
315,spring creek,40.7266,-115.5859,8.83,70,13,1.8,US,1712010198
316,yarmouth,41.7057,-70.2286,10.92,78,100,1.54,US,1712010199
317,vorkuta,67.5,64.0,-17.21,99,100,3.06,RU,1712010201
318,al burayqah,30.4062,19.5739,22.26,49,0,4.28,LY,1712010202
319,belyy yar,53.6039,91.3903,1.94,93,40,0.0,RU,1712010203
320,thunder bay,48.4001,-89.3168,0.99,69,20,6.17,CA,1712010205
321,ishinomaki,38.4167,141.3,9.0,60,9,9.93,JP,1712010023
322,atlanta,33.749,-84.388,24.77,64,100,4.63,US,1712010160
323,burutu,5.3509,5.5076,28.39,79,96,1.99,NG,1712010208
324,katsuura,35.1333,140.3,12.71,69,0,2.37,JP,1712010209
325,kruisfontein,-34.0033,24.7314,16.6,77,100,2.28,ZA,1712010211
326,manokwari,-0.8667,134.0833,26.02,84,100,1.94,ID,1712010212
327,mityana,0.4175,32.0228,18.56,99,69,0.55,UG,1712010213
328,oranjemund,-28.55,16.4333,14.79,88,2,6.03,NA,1712010215
329,homer,59.6425,-151.5483,0.58,87,100,10.8,US,1712010216
330,uttarkashi,30.7333,78.45,14.68,32,100,3.15,IN,1712010218
331,kirensk,57.7853,108.1119,-11.13,98,98,0.89,RU,1712010220
332,murehwa,-17.6432,31.784,16.66,70,99,0.99,ZW,1712010221
333,nabire,-3.3667,135.4833,25.69,91,100,1.23,ID,1712010222
334,geraldton,-28.7667,114.6,21.23,52,42,1.54,AU,1712010224
335,xining,36.6167,101.7667,4.43,74,100,0.75,CN,1712010225
336,nagtipunan,16.2167,121.6,21.83,97,59,1.38,PH,1712010226
337,bamboo flat,11.7,92.7167,23.05,94,1,1.03,IN,1712010228
338,celestun,20.8667,-90.4,28.15,64,2,6.09,MX,1712010229
339,burang,30.25,81.1667,-10.5,74,88,1.14,CN,1712010231
340,yuzhno-kurilsk,44.0306,145.8556,-2.01,97,100,3.91,RU,1712010000
341,kayangel,8.0823,134.7173,27.75,79,94,7.32,PW,1712010233
342,kuraymah,18.55,31.85,26.7,16,0,4.44,SD,1712010235
343,achinsk,56.2694,90.4993,-2.39,96,100,3.58,RU,1712010236
344,baki,-7.6128,110.7839,24.68,94,98,3.04,ID,1712010237
345,altai,46.3722,96.2583,-2.29,40,100,1.36,MN,1712010239
346,pontianak,-0.0333,109.3333,24.99,100,100,1.03,ID,1712010240
347,port mathurin,-19.6833,63.4167,26.18,85,99,6.24,MU,1712010241
348,scottburgh,-30.2867,30.7532,22.56,79,100,5.58,ZA,1712010242
349,santa cruz,-17.8,-63.1667,30.03,62,40,7.2,BO,1712010001
350,cidade velha,14.9167,-23.6167,22.26,73,20,6.17,CV,1712010245
351,bako,5.7833,36.5667,18.79,78,63,1.71,ET,1712010246
352,ulsteinvik,62.3432,5.8487,4.43,85,73,6.26,NO,1712010248
353,ndibene dahra,15.3338,-15.4766,34.99,25,0,7.04,SN,1712010249
354,challapata,-18.9,-66.7667,15.9,31,40,2.61,BO,1712010250
355,nchelenge,-9.3451,28.734,20.96,93,98,2.37,ZM,1712010251
356,cochrane,51.1834,-114.4687,11.29,51,0,5.14,CA,1712010253
357,pimentel,-6.8367,-79.9342,25.16,73,75,9.77,PE,1712010254
358,taltal,-25.4,-70.4833,20.79,75,23,2.47,CL,1712010255
359,kahuta,33.5913,73.3868,16.03,54,91,3.12,PK,1712010257
360,nadym,65.5333,72.5167,-11.12,95,64,5.14,RU,1712010258
361,blythe,33.6103,-114.5964,21.25,37,39,2.57,US,1712010259
362,ljusdal,61.8288,16.0913,0.08,94,100,2.98,SE,1712010261
363,pangkalanbuun,-2.6833,111.6167,23.26,99,98,1.07,ID,1712010263
364,el alto,-4.2714,-81.2147,26.81,74,92,4.78,PE,1712010264
365,tyrnyauz,43.3828,42.9183,7.28,51,77,3.2,RU,1712010265
366,larkird,35.4894,66.6641,7.45,74,98,0.04,AF,1712010266
367,layou,13.2,-61.2667,26.66,69,40,4.63,VC,1712010268
368,balabac,7.9868,117.0645,27.4,79,22,4.71,PH,1712010269
369,katsuren-haebaru,26.3369,127.8719,23.43,90,100,5.66,JP,1712010270
370,motygino,58.1831,94.7592,-21.23,100,100,0.45,RU,1712010271
371,susuman,62.7833,148.1667,-17.71,93,87,1.11,RU,1712010273
372,katoomba,-33.7198,150.3074,16.03,82,91,0.45,AU,1712010274
373,murun-kuren,49.6342,100.1625,-3.29,71,5,3.99,MN,1712010275
374,gereida,11.2811,25.1414,26.99,11,100,2.22,SD,1712010276
375,yebaishou,41.3975,119.6408,4.73,34,100,0.8,CN,1712010277
376,fada,9.5667,8.3,25.25,66,100,1.26,NG,1712010279
377,kismayo,-0.3582,42.5454,28.42,76,31,3.89,SO,1712010280
378,malango,-2.9627,119.9001,20.68,97,100,0.66,ID,1712010281
379,porto empedocle,37.2934,13.5264,13.71,75,100,2.97,IT,1712010283
380,joao pinheiro,-17.7425,-46.1725,24.5,77,100,2.04,BR,1712010208
381,lublin,51.0,23.0,19.77,61,72,5.81,PL,1712010285
382,alto araguaia,-17.3147,-53.2153,26.14,74,69,1.64,BR,1712010286
383,flin flon,54.7682,-101.865,-1.09,93,100,2.57,CA,1712010263
384,kindu,-2.95,25.95,22.01,94,98,1.1,CD,1712010289
385,igatpuri,19.7,73.55,23.43,27,5,0.92,IN,1712010290
386,port saint john's,-31.6229,29.5448,22.46,90,100,2.21,ZA,1712010291
387,salinas,36.6777,-121.6555,23.68,59,0,5.14,US,1712010011
388,dhidhdhoo,6.8833,73.1,28.6,72,57,0.72,MV,1712010294
389,juye,35.3947,116.0883,15.57,68,100,3.91,CN,1712010295
390,ozery,54.86,38.5506,13.62,82,83,4.92,RU,1712010296
391,nagornyy,52.7959,83.5498,2.74,84,99,3.85,RU,1712010298
392,tofol,5.3248,163.0078,28.88,74,75,5.14,FM,1712010299
393,mindelo,16.8901,-24.9804,21.75,68,20,7.72,CV,1712010300
394,puerto deseado,-47.7503,-65.8938,15.06,37,2,7.66,AR,1712010302
395,portland,45.5234,-122.6762,21.43,44,40,1.34,US,1712009704
396,savanna-la-mar,18.219,-78.1332,28.29,78,89,1.79,JM,1712010304
397,vila franca do campo,37.7167,-25.4333,16.23,86,31,8.33,PT,1712010305
398,tolanaro,-25.0319,46.9987,22.75,82,100,6.85,MG,1712010307
399,sabya,17.1495,42.6254,29.79,64,51,0.94,SA,1712010308
400,nuku'alofa,-21.1333,-175.2,29.19,79,75,5.66,TO,1712010215
401,ulladulla,-35.35,150.4667,21.21,60,98,4.49,AU,1712010311
402,nadvoitsy,63.8667,34.3167,-1.92,92,100,5.27,RU,1712010312
403,chinsali,-10.5414,32.0816,17.8,97,100,2.94,ZM,1712010314
404,prado,-17.3411,-39.2208,26.04,81,93,3.96,BR,1712010315
405,naze,28.3667,129.4833,19.51,75,86,6.65,JP,1712010316
406,luau,-10.7073,22.2247,18.56,99,100,0.81,AO,1712010318
407,parfino,57.9731,31.6481,11.56,91,37,2.22,RU,1712010319
408,mhamid,29.82,-5.72,22.61,22,0,3.06,MA,1712010321
409,chul'man,56.8479,124.9104,-22.16,100,100,0.15,RU,1712010322
410,laguna,38.421,-121.4238,22.99,35,0,3.6,US,1712010305
411,aykhal,66.0,111.5,-18.15,98,100,3.89,RU,1712010325
412,mbekenyera,-10.0,38.9833,21.71,97,84,1.6,TZ,1712010326
413,barra de santo antonio,-9.4047,-35.5072,27.6,84,54,4.19,BR,1712010327
414,vallenar,-28.5708,-70.7581,27.24,40,0,2.65,CL,1712010329
415,besisahar,28.2313,84.3761,20.53,29,17,3.87,NP,1712010330
416,ilhabela,-23.7781,-45.3581,23.28,89,19,3.65,BR,1712010331
417,salalah,17.0151,54.0924,26.05,57,0,2.06,OM,1712010333
418,paradip garh,20.3167,86.6167,28.02,69,81,6.53,IN,1712010334
419,menongue,-14.6585,17.691,19.45,87,100,2.39,AO,1712010335
420,khairpur nathan shah,27.0936,67.7337,24.37,15,74,1.47,PK,1712010337
421,petauke,-14.2426,31.3253,18.05,82,94,1.75,ZM,1712010338
422,atherton,53.5237,-2.4935,8.49,92,100,1.42,GB,1712010135
423,khorol,49.7837,33.2783,12.74,79,36,4.03,UA,1712010341
424,keokuk,40.3973,-91.3849,19.49,94,40,4.12,US,1712010157
425,harper,4.375,-7.7169,27.59,87,21,1.89,LR,1712010344
426,peniche,39.3558,-9.3811,13.95,85,99,6.33,PT,1712010345
427,al qadarif,14.0349,35.3834,29.81,12,92,5.0,SD,1712010346
428,chiredzi,-21.05,31.6667,20.04,82,57,2.21,ZW,1712010348
429,al ghayzah,16.2079,52.176,25.6,70,52,2.13,YE,1712010349
430,bandon,51.7469,-8.7425,8.77,89,15,1.28,IE,1712010092
431,kingston,17.997,-76.7936,28.53,80,40,10.8,JM,1712010281
432,al bawiti,28.3492,28.8659,21.79,40,0,6.37,EG,1712010353
433,san luis de la loma,17.2706,-100.8939,29.84,56,71,4.71,MX,1712010354
434,fuglafjordur,62.244,-6.814,5.26,93,100,12.93,FO,1712010356
435,pangai,-19.8,-174.35,30.06,79,40,7.2,TO,1712010139
436,greymouth,-42.4667,171.2,14.7,68,64,1.86,NZ,1712010358
437,stornoway,58.2093,-6.3865,6.98,83,20,4.63,GB,1712010360
438,lautoka,-17.6167,177.4667,29.92,70,75,0.0,FJ,1712010361
439,hovd,48.0056,91.6419,-0.31,46,66,0.64,MN,1712010359
440,bolgar,54.95,49.0667,2.75,100,100,4.62,RU,1712010364
441,puerto santa,-8.9906,-78.6456,22.61,83,94,4.14,PE,1712010365
442,awjilah,29.1081,21.2869,25.11,27,0,3.79,LY,1712010367
443,tarnogskiy gorodok,60.4997,43.5761,8.45,96,100,5.14,RU,1712010369
444,tsiombe,-25.3,45.4833,21.85,80,8,8.32,MG,1712010370
445,soio,-6.1349,12.3689,27.25,89,58,2.31,AO,1712010371
446,brisas de zicatela,15.8369,-97.0419,30.29,66,0,6.17,MX,1712010372
447,vysokaya gora,55.9128,49.3017,3.1,94,100,5.05,RU,1712010374
448,orange walk,17.8333,-88.8333,33.94,45,0,4.53,BZ,1712010375
449,kohima,25.6667,94.1167,13.31,64,0,2.14,IN,1712010376
450,laojunmiao,39.8333,97.7333,2.16,64,100,0.34,CN,1712010378
451,presidente epitacio,-21.7633,-52.1156,22.7,97,100,3.23,BR,1712010081
452,kenai,60.5544,-151.2583,3.05,82,75,5.66,US,1712010381
453,maicao,11.3832,-72.2432,30.46,53,61,7.39,CO,1712010383
454,kiunga,-6.1219,141.2906,24.19,99,99,0.4,PG,1712010384
455,alamos,27.0167,-108.9333,23.21,23,5,4.22,MX,1712010385
456,lajedo,-8.6636,-36.32,22.67,93,100,2.86,BR,1712010387
457,ojinaga,29.5667,-104.4167,23.65,35,0,10.29,MX,1712010235
458,fiambala,-27.6871,-67.6149,22.9,52,0,4.07,AR,1712010389
459,xilin hot,43.9667,116.0333,0.39,91,61,2.71,CN,1712010390
460,badger,64.8,-147.5333,4.28,40,0,3.09,US,1712010392
461,pekan,3.4836,103.3996,26.06,89,97,0.24,MY,1712010393
462,labrador city,52.9463,-66.9114,-2.68,60,75,3.6,CA,1712010395
463,general mosconi,-23.1851,-62.303,33.54,42,93,2.45,AR,1712010396
464,gewane,10.1664,40.6453,23.85,75,100,0.55,ET,1712010397
465,tabou,4.423,-7.3528,27.67,88,43,2.4,CI,1712010399
466,marsala,37.7966,12.4352,14.97,100,0,2.57,IT,1712010400
467,paracuru,-3.41,-39.0306,26.02,86,93,2.23,BR,1712010401
468,mandan,46.8267,-100.8896,8.23,54,0,2.57,US,1712010375
469,la'ie,21.6477,-157.9253,26.98,75,68,3.58,US,1712010404
470,thirsk,54.233,-1.3441,7.75,93,75,2.06,GB,1712010405
471,leh,34.1667,77.5833,-11.42,81,58,0.85,IN,1712010407
472,guerrero negro,27.9769,-114.0611,18.84,51,9,6.5,MX,1712010365
473,baragua,21.6967,-78.6328,29.61,50,5,3.13,CU,1712010409
474,guangyuan,32.442,105.823,15.53,89,100,2.54,CN,1712010410
475,khandyga,62.6667,135.6,-19.41,99,100,0.21,RU,1712010411
476,waingapu,-9.6567,120.2641,26.28,80,100,2.09,ID,1712010413
477,pelabuhanratu,-6.9875,106.5514,25.98,90,73,1.04,ID,1712010414
478,shindand,33.3029,62.1474,12.38,48,2,2.89,AF,1712010415
479,maun,-19.9833,23.4167,20.46,70,99,2.1,BW,1712010417
480,bull savanna,17.8868,-77.5902,26.27,72,54,4.82,JM,1712010418
481,ola,59.5833,151.2833,-7.08,75,97,4.48,RU,1712010419
482,lethem,3.3803,-59.7968,35.12,34,83,4.12,GY,1712010421
483,kununurra,-15.7667,128.7333,25.99,94,75,1.54,AU,1712010145
484,al quwayrah,29.8004,35.3116,23.0,38,93,5.76,JO,1712010424
485,chissamba,-12.1667,17.3333,17.25,98,85,1.32,AO,1712010425
486,sorong,-0.8833,131.25,27.63,81,74,5.39,ID,1712010426
487,aldinga beach,-35.2793,138.4604,17.04,76,63,7.42,AU,1712010428
488,sandnessjoen,66.0217,12.6316,-0.71,70,91,9.47,NO,1712010166
489,rossosh',51.1209,38.5116,13.04,65,57,4.02,RU,1712010432
490,magistral'nyy,56.1725,107.4458,-7.57,92,100,1.82,RU,1712010433
491,peace river,56.2501,-117.286,11.17,18,75,7.2,CA,1712010233
492,alofi,-19.0595,-169.9187,29.94,74,75,8.23,NU,1712010435
493,riverton,40.5219,-111.9391,9.69,65,100,7.72,US,1712010437
494,kaa-khem,51.6833,94.7333,-3.66,91,84,1.24,RU,1712010438
495,pervomayskoye,43.919,46.7102,8.98,65,39,4.15,RU,1712010439
496,happy valley-goose bay,53.3168,-60.3315,2.17,93,100,4.63,CA,1712010180
497,puducherry,11.9333,79.8167,26.59,82,1,3.11,IN,1712010442
498,montevideo,-34.8335,-56.1674,16.84,77,75,3.6,UY,1712010171
499,shahr-e babak,30.1165,55.1186,11.29,48,98,2.85,IR,1712010445
500,nova sintra,14.8667,-24.7167,19.52,80,5,8.08,CV,1712010446
501,queenstown,-31.8976,26.8753,17.44,75,74,1.64,ZA,1712010447
502,bubaque,11.2833,-15.8333,24.5,70,7,6.16,GW,1712010450
503,westport,41.1415,-73.3579,12.16,61,100,0.0,US,1712010452
504,opuwo,-18.0607,13.84,22.11,44,100,1.69,NA,1712010453
505,sinabang,2.4803,96.3801,27.1,80,96,0.84,ID,1712010455
506,puerto gaitan,4.3133,-72.0816,33.92,42,94,4.36,CO,1712010456
507,seguela,7.9611,-6.6731,29.73,55,43,4.62,CI,1712010457
508,suomussalmi,64.8869,28.9078,-5.41,89,99,5.05,FI,1712010459
509,tutoia,-2.7619,-42.2744,27.01,83,50,2.88,BR,1712010460
510,herval,-32.0236,-53.3956,14.85,97,100,5.82,BR,1712010461
511,brak,27.5496,14.2714,24.01,14,0,1.06,LY,1712010462
512,cabo san lucas,22.8909,-109.9124,25.34,46,20,7.2,MX,1712009916
513,ust'-ilimsk,58.0006,102.6619,-14.2,99,92,1.86,RU,1712010167
514,kutum,14.2,24.6667,22.05,12,52,5.36,SD,1712010466
515,labytnangi,66.6572,66.4183,-16.83,90,86,1.8,RU,1712010467
516,karratha,-20.7377,116.8463,28.83,43,0,4.6,AU,1712010468
517,iwon-up,40.3231,128.6553,5.43,62,92,1.57,KP,1712010471
518,dryden,49.7833,-92.7503,4.16,35,0,3.09,CA,1712010472
519,urumqi,43.801,87.6005,2.53,81,20,1.0,CN,1712010473
520,sanchi,23.4833,77.7333,23.93,22,96,1.78,IN,1712010475
521,lycksele,64.5954,18.6735,-8.07,93,20,1.54,SE,1712010476
522,chibougamau,49.9168,-74.3659,0.79,44,0,3.6,CA,1712010477
523,rakops,-21.0167,24.3333,18.87,79,53,2.15,BW,1712010479
524,sao jose da coroa grande,-8.8978,-35.1478,27.97,81,84,4.28,BR,1712010480
525,ghat,24.9647,10.1728,26.36,9,1,1.25,LY,1712010481
526,ammi moussa,35.8678,1.1114,12.84,65,18,2.24,DZ,1712010482
527,gorgoram,12.6398,10.7039,32.95,12,65,4.4,NG,1712010484
528,yanjiang,30.1211,104.6481,18.3,95,100,4.05,CN,1712010485
529,roma,43.2128,-75.4557,13.39,46,0,7.2,US,1712010486
530,sarmiento,-45.5882,-69.07,13.21,42,4,10.73,AR,1712010487
531,villa zaragoza,22.0333,-100.7333,28.04,11,100,9.95,MX,1712010488
532,honolulu,21.3069,-157.8583,26.9,72,40,7.2,US,1712009987
533,namsos,64.4662,11.4957,2.03,93,100,0.0,NO,1712010491
534,cookeville,36.1628,-85.5016,23.91,69,75,3.6,US,1712010459
535,hola,51.5377,23.1902,20.1,55,97,4.05,PL,1712010217
536,pont rouge,48.8833,-72.0825,5.16,52,76,2.68,CA,1712010496
537,batie,9.8833,-2.9167,34.22,29,58,2.68,BF,1712010497
538,port macquarie,-31.4333,152.9167,23.27,82,40,3.74,AU,1712010498
539,resplendor,-19.3256,-41.2553,25.82,79,68,1.82,BR,1712010501
540,clarksville,36.5298,-87.3595,25.41,55,100,5.14,US,1712010502
541,sant antoni de portmany,38.9807,1.3036,17.83,70,0,6.17,ES,1712010504
542,yinzhu,35.8786,119.9753,8.97,96,100,3.32,CN,1712010505
543,pailon,-17.65,-62.75,30.82,57,35,4.7,BO,1712010506
544,juan l. lacaze,-34.4333,-57.4167,17.07,79,96,4.99,UY,1712010509
545,isheyevka,54.4167,48.2667,1.79,100,100,3.65,RU,1712010510
546,anori,-3.7728,-61.6442,25.6,96,99,1.0,BR,1712010513
547,sisimiut,66.9395,-53.6735,-3.07,84,99,2.48,GL,1712010514
548,turpan,42.9333,89.1667,13.54,45,100,4.81,CN,1712010515
549,maragogi,-9.0122,-35.2225,27.84,82,87,4.09,BR,1712010517
550,yadrin,55.9405,46.2062,6.56,92,100,4.42,RU,1712010518
551,bogatyye saby,56.0102,50.4483,1.76,99,100,5.28,RU,1712010519
552,kamloops,50.6665,-120.3192,19.55,24,75,2.57,CA,1712010321
553,tommot,58.9564,126.2925,-14.99,99,100,0.34,RU,1712010522
554,northam,51.0333,-4.2167,8.7,94,29,3.12,GB,1712010523
555,makar'yev,57.8797,43.8069,8.11,92,80,4.32,RU,1712010525
556,akureyri,65.6835,-18.0878,-5.04,93,75,4.12,IS,1712010526
557,dimako,4.3833,13.5667,23.28,73,100,1.47,CM,1712010528
558,zhalantun,48.0,122.7167,-1.22,49,100,1.63,CN,1712010529
559,burley,42.5357,-113.7928,11.28,46,0,4.63,US,1712010530
560,christchurch,-43.5333,172.6333,15.51,78,100,1.03,NZ,1712009828
561,sao paulo de olivenca,-3.3783,-68.8725,23.59,99,100,1.55,BR,1712010533
562,nenjiang,49.1833,125.2167,-3.84,77,54,2.2,CN,1712010534
563,saurimo,-9.6608,20.3916,18.79,97,100,0.95,AO,1712010536
564,quepos,9.4236,-84.1652,30.17,55,6,2.45,CR,1712010146
565,san juan,-31.5375,-68.5364,22.63,24,8,4.95,AR,1712010535
566,ribeira brava,32.65,-17.0667,18.89,83,52,3.59,PT,1712010539
567,olyokminsk,60.3736,120.4264,-19.15,100,90,0.59,RU,1712010541
568,kon tum,14.35,108.0,21.17,87,5,0.37,VN,1712010542
569,west mackay,-21.1481,149.1605,27.02,79,15,4.2,AU,1712010544
570,acton,51.509,-0.2762,10.14,87,75,5.14,GB,1712010545
571,brezina,33.0989,1.2608,17.04,35,0,3.98,DZ,1712010546
572,rio guayabal de yateras,20.3667,-75.0167,25.49,51,8,3.34,CU,1712010547
573,vilyuysk,63.7553,121.6247,-24.44,100,96,0.45,RU,1712010549
574,crawfordsville,40.0411,-86.8745,20.08,71,100,5.14,US,1712010551
575,quibala,-10.7337,14.98,18.32,99,100,0.35,AO,1712010553
576,koryazhma,61.3143,47.1691,6.62,97,100,5.15,RU,1712010554
577,bitkine,11.9801,18.2138,31.53,10,73,4.22,TD,1712010555
578,timaru,-44.4,171.25,13.93,82,100,1.79,NZ,1712010524
579,pacific grove,36.6177,-121.9166,21.88,69,0,5.14,US,1712010558
580,kiama,-34.6833,150.8667,20.88,85,87,2.24,AU,1712010559
581,freetown,8.484,-13.2299,25.98,85,51,1.75,SL,1712010560
582,imperatriz,-5.5264,-47.4917,25.64,93,99,1.2,BR,1712010561
583,cururupu,-1.8283,-44.8683,25.24,92,42,1.39,BR,1712010335
584,lorengau,-2.0226,147.2712,28.95,81,97,4.77,PG,1712010564
585,lagoa,39.05,-27.9833,14.88,79,81,13.07,PT,1712010565
586,sarikei,2.1167,111.5167,23.1,99,96,0.44,MY,1712010566
587,kisanga,-7.4362,37.7034,23.04,95,93,0.81,TZ,1712010567
