City_ID,City,Lat,Lng,Max Temp,Humidity,Cloudiness,Wind Speed,Country,Date
0,portland,45.5234,-122.6762,17.97,56,100,4.47,US,1712115758
1,usinsk,65.9939,57.5281,-18.78,88,9,2.56,RU,1712116270
2,liwale,-9.7667,37.9333,20.66,98,82,1.37,TZ,1712116271
3,blackmans bay,-43.0167,147.3167,14.85,53,100,1.34,AU,1712116272
4,aasiaat,68.7098,-52.8699,-11.37,88,98,2.31,GL,1712116273
5,wamba,8.9333,8.6,25.67,63,76,0.8,NG,1712116274
6,waitangi,-43.9535,-176.5597,16.01,88,100,1.34,NZ,1712116276
7,kyaikkami,16.08,97.5675,29.93,60,72,3.92,MM,1712116277
8,chonchi,-42.6128,-73.8092,8.56,92,100,1.57,CL,1712116278
9,bedum,53.3008,6.6028,9.0,90,100,2.48,NL,1712116279
10,port-aux-francais,-49.35,70.2167,7.29,89,99,12.9,TF,1712116281
11,punta arenas,-53.15,-70.9167,2.06,87,20,7.2,CL,1712116177
12,rudbar,30.15,62.6,15.6,35,2,4.04,AF,1712116283
13,bamyan,34.75,67.25,-3.54,89,58,0.73,AF,1712116284
14,edinburgh of the seven seas,-37.0676,-12.3116,15.04,73,56,7.96,SH,1712116285
15,mundybash,53.211,87.2983,2.92,97,99,0.71,RU,1712116071
16,changwon,35.2281,128.6811,12.93,97,100,2.26,KR,1712116287
17,adamstown,-25.066,-130.1015,24.28,70,100,10.73,PN,1712116288
18,tiksi,71.6872,128.8694,-17.78,93,100,1.9,RU,1712116289
19,ushuaia,-54.8,-68.3,1.81,87,0,3.09,AR,1712116225
20,port elizabeth,-33.918,25.5701,15.17,86,0,3.6,ZA,1712116291
21,rio grande,-32.035,-52.0986,17.98,69,2,2.11,BR,1712116249
22,pisco,-13.7,-76.2167,22.03,78,0,0.0,PE,1712116294
23,nova sintra,14.8667,-24.7167,19.22,77,82,9.98,CV,1712116296
24,baishishan,43.5833,127.5667,8.49,29,88,4.09,CN,1712116297
25,longyearbyen,78.2186,15.6401,-15.09,72,75,2.06,SJ,1712116298
26,salinas,36.6777,-121.6555,14.45,89,75,2.06,US,1712116193
27,udachny,66.4167,112.4,-7.98,71,99,6.15,RU,1712116300
28,puerto natales,-51.7236,-72.4875,3.2,83,91,4.31,CL,1712116038
29,georgetown,5.4112,100.3354,32.75,72,20,3.09,MY,1712116221
30,yellowknife,62.456,-114.3525,-1.71,64,75,6.69,CA,1712116303
31,chui,-33.6971,-53.4616,14.73,79,6,2.05,UY,1712116304
32,invercargill,-46.4,168.35,16.12,77,100,3.56,NZ,1712116305
33,egilsstadir,65.2653,-14.3948,-6.05,79,75,2.06,IS,1712116306
34,bredasdorp,-34.5322,20.0403,14.75,92,78,1.8,ZA,1712116307
35,ilulissat,69.2167,-51.1,-7.99,79,79,0.0,GL,1712116308
36,jayapura,-2.5333,140.7,31.66,83,99,1.72,ID,1712116309
37,iskateley,67.6803,53.1512,-16.66,91,7,4.92,RU,1712116310
38,ust-nera,64.5667,143.2,-8.27,75,80,1.68,RU,1712116311
39,hermanus,-34.4187,19.2345,14.33,91,97,4.16,ZA,1712116312
40,puerto cabezas,14.0351,-83.3888,25.63,75,1,3.72,NI,1712116251
41,port alfred,-33.5906,26.891,14.54,91,83,0.45,ZA,1712116315
42,utrik,11.2278,169.8474,26.86,75,100,7.81,MH,1712116316
43,swift current,50.2834,-107.8014,7.45,65,0,6.17,CA,1712116198
44,palikir - national government center,6.9248,158.1611,31.41,66,75,5.66,FM,1712116318
45,bilibino,68.0546,166.4372,-11.72,69,13,0.5,RU,1712116319
46,macin,45.2437,28.1356,5.16,60,3,2.23,RO,1712116320
47,tolanaro,-25.0319,46.9987,23.04,88,75,4.12,MG,1712116321
48,arraial do cabo,-22.9661,-42.0278,23.92,88,0,1.03,BR,1712116322
49,kone,-21.0595,164.8658,29.65,56,19,2.09,NC,1712116323
50,puerto ayora,-0.7393,-90.3518,24.75,97,98,1.79,EC,1712116125
51,hobyo,5.3505,48.5268,28.55,69,41,4.12,SO,1712116325
52,susuman,62.7833,148.1667,-6.6,55,0,1.43,RU,1712116326
53,shingu,33.7333,135.9833,14.51,98,100,3.7,JP,1712116327
54,whakatane,-37.9585,176.9854,21.54,87,40,0.89,NZ,1712116328
55,phitsanulok,16.9167,100.5,34.71,33,7,4.15,TH,1712116330
56,ormara,25.2088,64.6357,26.78,42,99,4.42,PK,1712116331
57,grytviken,-54.2811,-36.5092,3.87,87,17,4.89,GS,1712116332
58,thompson,55.7435,-97.8558,1.09,69,75,1.03,CA,1712116333
59,nemuro,43.3236,145.575,2.49,66,7,5.53,JP,1712116334
60,blacksburg,37.2296,-80.4139,19.89,95,100,1.84,US,1712116335
61,kaa-khem,51.6833,94.7333,0.23,64,100,0.87,RU,1712116064
62,afua,-0.1567,-50.3867,24.68,94,94,1.99,BR,1712116337
63,pitimbu,-7.4706,-34.8086,27.33,86,33,2.6,BR,1712116338
64,whitehorse,60.7161,-135.0538,2.43,48,75,1.03,CA,1712115824
65,three points,32.0767,-111.3137,16.72,58,0,2.57,US,1712116342
66,saint-maximin-la-sainte-baume,43.4521,5.8622,11.73,73,100,1.51,FR,1712116343
67,vadso,70.0744,29.7487,-10.91,79,20,6.17,NO,1712116344
68,tir pul,34.5943,61.269,11.2,54,0,5.07,AF,1712116345
69,varangaon,21.0167,75.9,33.53,20,70,2.27,IN,1712116346
70,mar del plata,-38.0023,-57.5575,17.15,73,0,10.28,AR,1712116155
71,ore,6.7457,4.8775,25.74,94,93,1.18,NG,1712116348
72,soro,21.2881,86.6858,33.92,43,4,3.04,IN,1712116350
73,college,64.8569,-147.8028,-8.82,52,20,4.12,US,1712116352
74,kodiak,57.79,-152.4072,2.73,28,0,5.66,US,1712116070
75,badger,64.8,-147.5333,-8.86,55,40,4.12,US,1712116353
76,ciudad lazaro cardenas,17.9583,-102.2,23.32,85,9,1.79,MX,1712116354
77,lubang,13.8584,120.124,28.02,76,7,5.94,PH,1712116356
78,bethel,41.3712,-73.414,6.31,86,100,0.89,US,1712116357
79,nar'yan-mar,67.6713,53.087,-16.61,91,6,4.92,RU,1712116359
80,hithadhoo,-0.6,73.0833,28.81,72,93,1.45,MV,1712116360
81,kerikeri,-35.2268,173.9474,21.29,55,54,3.52,NZ,1712116361
82,pacific grove,36.6177,-121.9166,14.12,84,75,2.24,US,1712116362
83,natal,-5.795,-35.2094,26.36,94,40,1.54,BR,1712115778
84,sitka,57.0531,-135.33,5.94,70,100,7.72,US,1712116364
85,hami,42.8,93.45,11.65,27,0,1.77,CN,1712116365
86,hamilton,39.1834,-84.5333,13.69,83,90,6.71,US,1712116138
87,cabedelo,-6.9811,-34.8339,27.37,84,48,2.78,BR,1712116368
88,mersing,2.4312,103.8405,33.95,70,40,3.09,MY,1712116369
89,codrington,-38.2667,141.9667,15.13,61,99,4.6,AU,1712116370
90,san juanito,28.0,-107.5833,0.44,60,79,3.08,MX,1712116371
91,alice springs,-23.7,133.8833,26.79,30,0,6.69,AU,1712116094
92,nuuk,64.1835,-51.7216,-1.66,86,27,5.14,GL,1712116260
93,wailua homesteads,22.0669,-159.378,26.24,74,75,7.2,US,1712116374
94,shenjiamen,29.9576,122.298,15.94,95,100,5.26,CN,1712116375
95,dryden,49.7833,-92.7503,1.16,44,20,3.09,CA,1712116084
96,bay harbor,30.1471,-85.6146,23.04,96,100,8.23,US,1712116378
97,klyuchi,52.2667,79.1667,2.14,79,96,2.72,RU,1712116379
98,ocos,14.5094,-92.1933,27.55,72,0,4.23,GT,1712116380
99,aykhal,66.0,111.5,-8.47,77,100,6.5,RU,1712116381
100,miri,4.4148,114.0089,31.08,74,40,2.57,MY,1712116322
101,yuzhno-kurilsk,44.0306,145.8556,2.43,69,56,4.97,RU,1712116383
102,talnakh,69.4865,88.3972,-9.81,94,100,6.51,RU,1712116384
103,san lawrenz,36.0553,14.204,11.67,76,2,6.05,MT,1712116385
104,kavieng,-2.5744,150.7967,29.55,73,74,5.45,PG,1712116386
105,baihe,22.15,107.2333,35.21,36,0,4.35,CN,1712116387
106,new norfolk,-42.7826,147.0587,15.51,46,100,2.91,AU,1712116388
107,taoudenni,22.6783,-3.9836,29.02,17,55,4.8,ML,1712116389
108,uturoa,-16.7333,-151.4333,28.6,73,85,7.64,PF,1712116390
109,ribeira grande,38.5167,-28.7,15.99,87,100,6.26,PT,1712116391
110,tuy hoa,13.0833,109.3,33.52,53,95,4.54,VN,1712116392
111,anadyr,64.75,177.4833,-7.72,78,75,8.0,RU,1712116393
112,pundong,-7.9522,110.3486,29.83,72,54,5.16,ID,1712116394
113,mokhotlong,-29.2894,29.0675,10.07,90,18,2.1,LS,1712116395
114,la passe,45.5549,-0.8967,13.13,90,82,9.03,FR,1712116396
115,albany,42.6001,-73.9662,5.51,91,100,0.45,US,1712116194
116,koz'modem'yansk,56.3367,46.5711,10.57,80,95,6.43,RU,1712116398
117,tvoroyri,61.5556,-6.8111,3.25,56,100,11.93,FO,1712116399
118,sao joao da barra,-21.6403,-41.0511,24.42,88,100,1.64,BR,1712116400
119,lihue,21.9789,-159.3672,26.58,73,75,7.2,US,1712116401
120,iqaluit,63.7506,-68.5145,-3.15,79,0,3.6,CA,1712116402
121,margaret river,-33.95,115.0667,22.88,37,0,0.83,AU,1712116403
122,kapa'a,22.0752,-159.319,26.99,73,75,7.2,US,1712116404
123,rajaori,33.3833,74.3,21.88,31,100,0.74,IN,1712116405
124,olonkinbyen,70.9221,-8.7187,-2.02,65,100,8.23,SJ,1712116406
125,shevchenkove,49.6959,37.1735,11.63,70,93,7.12,UA,1712116407
126,paoua,7.2427,16.4406,25.14,50,100,2.68,CF,1712116408
127,pokaran,26.9167,71.9167,28.11,35,100,4.25,IN,1712116410
128,tokushima,34.0658,134.5594,14.96,94,75,9.26,JP,1712116139
129,east london,-33.0153,27.9116,16.52,77,0,2.06,ZA,1712116412
130,hawaiian paradise park,19.5933,-154.9731,23.73,82,20,5.14,US,1712116413
131,atafu village,-8.5421,-172.5159,29.59,71,100,1.77,TK,1712116414
132,hugo,45.16,-92.9933,2.66,88,100,5.66,US,1712116415
133,jamestown,42.097,-79.2353,10.77,97,100,7.72,US,1712116147
134,port mathurin,-19.6833,63.4167,26.8,81,98,6.58,MU,1712116417
135,salinopolis,-0.6136,-47.3561,26.62,87,69,2.66,BR,1712116418
136,saipan,15.1355,145.701,31.39,66,40,8.75,MP,1712116251
137,midvagur,62.0511,-7.1939,0.46,69,75,1.54,FO,1712116419
138,chirala,15.8167,80.35,31.52,60,7,6.19,IN,1712116420
139,stanley,54.868,-1.6985,7.06,98,100,3.6,GB,1712116422
140,nizhnyaya poyma,56.1622,97.1933,4.71,78,100,1.67,RU,1712116423
141,valentin gomez farias,28.2167,-106.5833,6.73,55,47,1.96,MX,1712116424
142,turpan,42.9333,89.1667,17.25,27,12,1.6,CN,1712116425
143,makarov,48.6333,142.8,4.24,56,69,3.92,RU,1712116426
144,tabou,4.423,-7.3528,27.41,89,94,3.15,CI,1712116427
145,sandnessjoen,66.0217,12.6316,-6.94,58,0,3.09,NO,1712116428
146,tosontsengel,48.7567,98.2839,-1.93,74,100,0.92,MN,1712116430
147,minas de marcona,-15.2119,-75.1103,17.48,77,91,2.77,PE,1712116431
148,port lincoln,-34.7333,135.8667,18.28,60,100,4.52,AU,1712116397
149,tarawa,1.419,172.984,29.05,89,75,2.06,KI,1712116433
150,teknaf,20.8624,92.3058,29.9,66,93,2.4,BD,1712116434
151,constantia,44.1833,28.65,5.38,68,59,2.67,RO,1712116435
152,naze,28.3667,129.4833,24.51,82,31,10.44,JP,1712116212
153,erenhot,43.6475,111.9767,8.52,27,9,6.0,CN,1712116437
154,lorengau,-2.0226,147.2712,28.14,83,99,5.45,PG,1712116438
155,ponta delgada,37.7333,-25.6667,18.44,94,20,6.17,PT,1712116439
156,fort st. john,56.2499,-120.8529,7.94,34,40,8.75,CA,1712116440
157,isafjordur,66.0755,-23.124,-6.38,64,31,1.94,IS,1712116441
158,papatowai,-46.5619,169.4708,17.05,61,100,3.28,NZ,1712116442
159,debila,33.5167,6.95,15.04,58,0,3.6,DZ,1712116443
160,morondava,-20.2833,44.2833,25.49,70,1,4.62,MG,1712116444
161,acarau,-2.8856,-40.12,26.09,86,81,2.2,BR,1712116378
162,el fasher,13.6279,25.3494,21.47,16,100,2.61,SD,1712116446
163,fale old settlement,-9.3852,-171.2468,29.68,69,97,1.41,TK,1712116448
164,barranca,-10.75,-77.7667,21.95,80,74,2.41,PE,1712116449
165,misratah,32.3754,15.0925,16.81,82,35,4.87,LY,1712116450
166,ketchikan,55.3422,-131.6461,4.26,81,100,5.14,US,1712116451
167,berdigestyakh,62.0989,126.6992,-3.87,84,100,4.39,RU,1712116452
168,new plymouth,-39.0667,174.0833,16.29,76,91,4.01,NZ,1712116453
169,nogliki,51.8333,143.1667,0.75,68,76,4.02,RU,1712116432
170,saldanha,-33.0117,17.9442,12.03,83,99,4.54,ZA,1712116456
171,carutapera,-1.195,-46.02,25.5,93,79,1.64,BR,1712116458
172,san agustin de valle fertil,-30.6335,-67.4682,14.77,85,0,1.33,AR,1712116459
173,hadibu,12.65,54.0333,26.55,74,54,2.57,YE,1712116460
174,nova olinda do norte,-3.8881,-59.0942,23.8,99,96,0.46,BR,1712116461
175,west island,-12.1568,96.8225,28.99,74,41,7.2,CC,1712116462
176,la'ie,21.6477,-157.9253,26.98,73,63,5.81,US,1712116463
177,sastobe,42.55,70.0,8.94,54,100,1.72,KZ,1712116464
178,salalah,17.0151,54.0924,26.05,47,0,2.06,OM,1712116465
179,teshi old town,5.5836,-0.1072,22.31,100,20,7.72,GH,1712116466
180,fort hood,31.1349,-97.7756,13.19,63,0,4.12,US,1712116467
181,dudinka,69.4058,86.1778,-7.4,94,100,9.39,RU,1712116469
182,port moresby,-9.4431,147.1797,29.86,71,99,2.84,PG,1712116470
183,dubbo,-32.25,148.6167,23.07,46,40,2.06,AU,1712116472
184,mil'kovo,55.6078,37.7956,14.22,74,100,6.11,RU,1712116473
185,constitucion,-35.3333,-72.4167,13.3,89,100,2.62,CL,1712116474
186,severo-yeniseyskiy,60.3725,93.0408,-0.24,96,99,3.13,RU,1712116475
187,avarua,-21.2078,-159.775,28.03,74,40,3.09,CK,1712116476
188,tsiombe,-25.3,45.4833,22.05,85,0,5.23,MG,1712116477
189,kingston,17.997,-76.7936,27.53,72,20,7.2,JM,1712116189
190,margate,51.3813,1.3862,9.93,94,100,4.02,GB,1712116479
191,brokopondo,4.75,-55.1667,26.22,83,32,4.54,SR,1712116480
192,argo,37.6333,22.7333,14.88,57,100,2.17,GR,1712116481
193,morden,49.1919,-98.1014,1.72,86,100,2.57,CA,1712116404
194,mollerussa,41.6333,0.9,7.29,72,7,1.41,ES,1712116484
195,kinkala,-4.3614,14.7644,22.13,93,98,0.28,CG,1712116486
196,tromso,69.6496,18.957,-3.99,86,75,3.09,NO,1712116486
197,ilebo,-4.3167,20.5833,21.91,89,100,0.63,CD,1712116487
198,enewetak,11.3474,162.3373,26.97,79,77,8.74,MH,1712116488
199,nizhyn,51.048,31.8869,8.73,75,94,9.15,UA,1712116489
200,afaahiti,-17.75,-149.2833,28.93,76,83,8.26,PF,1712116490
201,happy valley-goose bay,53.3168,-60.3315,-0.83,80,75,4.12,CA,1712116491
202,celestun,20.8667,-90.4,26.26,81,52,4.12,MX,1712116492
203,balkanabat,39.5108,54.3671,17.87,25,0,4.29,TM,1712116494
204,mersa matruh,31.3525,27.2453,13.11,71,0,1.54,EG,1712116495
205,banda aceh,5.5577,95.3222,30.08,69,83,1.46,ID,1712116496
206,tyukhtet,56.5389,89.3011,0.85,98,100,3.37,RU,1712116497
207,stung treng,13.5259,105.9683,37.49,38,14,2.47,KH,1712116498
208,hanceville,34.0607,-86.7675,21.95,95,99,4.18,US,1712116499
209,ulaangom,49.9811,92.0667,-2.39,90,100,1.55,MN,1712116500
210,west plains,36.7281,-91.8524,7.17,74,76,3.13,US,1712116501
211,as samawah,31.332,45.2944,23.2,26,94,3.8,IQ,1712116502
212,carnarvon,-24.8667,113.6333,33.48,34,94,7.01,AU,1712116503
213,kachkanar,58.7,59.4948,3.49,99,100,2.84,RU,1712116504
214,teabo,20.4,-89.2833,26.29,66,31,1.86,MX,1712116505
215,praia da vitoria,38.7333,-27.0667,16.53,82,40,10.94,PT,1712116506
216,plaza huincul,-38.926,-69.2086,12.86,10,100,4.02,AR,1712116507
217,kailua-kona,19.6406,-155.9956,26.98,91,75,5.14,US,1712116509
218,pauini,-7.7136,-66.9764,23.35,91,61,1.18,BR,1712116510
219,tralee,52.2704,-9.7026,8.19,93,100,2.47,IE,1712116511
220,cabo san lucas,22.8909,-109.9124,19.86,76,7,0.89,MX,1712116323
221,lebu,-37.6167,-73.65,11.62,87,77,2.37,CL,1712116513
222,tura,25.5198,90.2201,30.36,33,64,2.29,IN,1712116514
223,cidreira,-30.1811,-50.2056,20.36,84,38,1.37,BR,1712116515
224,nikolayevsk-on-amure,53.1406,140.73,1.19,76,58,4.24,RU,1712116516
225,kenora,49.8167,-94.4337,3.54,48,40,2.06,CA,1712116398
226,vilyuysk,63.7553,121.6247,-2.78,85,100,4.92,RU,1712116518
227,san sebastian de la gomera,28.0916,-17.1133,19.2,68,0,0.51,ES,1712116519
228,beaune,47.0833,4.75,6.8,92,100,4.24,FR,1712116520
229,huarmey,-10.0681,-78.1522,22.61,82,87,2.15,PE,1712116521
230,beltangadi,13.9833,75.3,30.91,39,6,1.59,IN,1712116523
231,brookings,44.3114,-96.7984,3.43,77,100,7.72,US,1712116292
232,newman,37.3138,-121.0208,19.13,72,0,1.79,US,1712116485
233,filingue,14.3521,3.3168,28.7,15,98,2.87,NE,1712116526
234,puerto lempira,15.2667,-83.7667,23.96,83,0,4.39,HN,1712116527
235,adrar,20.5022,-10.0711,25.65,19,19,5.84,MR,1712116528
236,haiku-pauwela,20.9219,-156.3051,25.01,74,75,12.86,US,1712116530
237,buala,-8.145,159.5921,29.34,76,60,2.52,SB,1712116531
238,mammoth lakes,37.6485,-118.9721,4.4,58,0,4.63,US,1712116532
239,mucur,39.0615,34.3829,9.01,42,100,1.95,TR,1712116533
240,namibe,-15.1961,12.1522,22.17,73,47,4.42,AO,1712116534
241,san antonio de pale,-1.4014,5.6325,28.46,78,100,2.5,GQ,1712116535
242,naqadeh,36.9553,45.388,12.12,44,0,1.14,IR,1712116536
243,al ain city,24.1917,55.7606,20.79,40,0,2.57,AE,1712116424
244,delta,5.5,6.0,25.62,95,71,1.31,NG,1712116076
245,opuwo,-18.0607,13.84,19.14,72,44,1.89,NA,1712116539
246,keflavik,64.0049,-22.5624,0.24,80,0,4.63,IS,1712116540
247,wajir,1.7471,40.0573,25.98,89,75,0.0,KE,1712116541
248,les cayes,18.2,-73.75,24.32,79,59,1.89,HT,1712116542
249,ribeira brava,32.65,-17.0667,15.95,60,1,1.05,PT,1712116543
250,mana,5.6592,-53.7767,26.04,88,50,3.48,GF,1712116544
251,ancud,-41.8697,-73.8203,9.82,69,100,3.9,CL,1712116545
252,karera,25.4667,78.15,32.21,14,54,2.69,IN,1712116546
253,pariaman,-0.619,100.12,31.03,82,86,1.4,ID,1712116547
254,tan-tan,28.438,-11.1032,15.91,89,6,6.13,MA,1712116548
255,jackson,42.4165,-122.8345,22.93,31,40,4.63,US,1712116549
256,punta del este,-34.9667,-54.95,15.06,81,0,3.6,UY,1712116304
257,ocean city,39.2776,-74.5746,8.32,92,100,6.71,US,1712116551
258,plastun,44.7561,136.2939,6.88,46,80,3.09,RU,1712116552
259,presque isle,46.6811,-68.0159,0.92,70,0,2.57,US,1712116553
260,karcag,47.3167,20.9333,6.11,81,1,4.64,HU,1712116554
261,kentville,45.0835,-64.4988,2.45,88,51,3.6,CA,1712116535
262,pervomayskoye,43.919,46.7102,11.17,70,3,6.81,RU,1712116556
263,kourou,5.1552,-52.6478,27.03,89,51,2.92,GF,1712116557
264,bandon,51.7469,-8.7425,7.77,91,100,3.79,IE,1712116559
265,copala,16.65,-98.9833,23.91,87,6,1.97,MX,1712116560
266,jeddah,21.5169,39.2192,25.92,65,0,2.06,SA,1712116561
267,geraldton,-28.7667,114.6,33.23,19,100,6.69,AU,1712116273
268,mata-utu,-13.2816,-176.1745,30.03,73,100,4.55,WF,1712116563
269,howrah,22.5892,88.3103,32.0,66,20,1.54,IN,1712116564
270,rongelap,11.1635,166.8941,26.95,79,99,7.55,MH,1712116565
271,kuta,-8.7233,115.1723,30.97,74,20,3.6,ID,1712116567
272,juuka,63.2333,29.25,-5.77,86,100,7.22,FI,1712116568
273,alofi,-19.0595,-169.9187,27.94,89,75,5.66,NU,1712116569
274,selebi-phikwe,-21.979,27.8498,16.24,66,7,2.64,BW,1712116570
275,livingstone,-17.8419,25.8543,19.41,67,31,1.76,ZM,1712116571
276,mount gambier,-37.8333,140.7667,16.98,52,89,3.94,AU,1712116370
277,el nido,11.1858,119.3956,29.27,70,15,5.63,PH,1712116573
278,port area,14.5833,120.9667,33.45,60,40,8.49,PH,1712116574
279,bebedja,8.6761,16.566,30.42,26,100,0.67,TD,1712116575
280,lompoc,34.6391,-120.4579,14.96,89,0,3.6,US,1712116342
281,yigo village,13.5361,144.8886,28.74,81,75,7.72,GU,1712116577
282,konarka,19.9,86.1167,30.22,67,0,6.07,IN,1712116578
283,sinabang,2.4803,96.3801,29.82,69,100,0.44,ID,1712116579
284,vorgashor,67.5833,63.95,-19.19,91,54,6.18,RU,1712116580
285,zhezqazghan,47.7833,67.7667,3.32,93,9,5.0,KZ,1712116581
286,hasaki,35.7333,140.8333,17.38,82,100,4.69,JP,1712116582
287,papao,-17.75,-149.55,29.82,76,43,9.33,PF,1712116583
288,samarinda,-0.5,117.15,33.86,41,61,2.81,ID,1712116584
289,evergreen,39.6333,-105.3172,7.45,38,6,3.13,US,1712116530
290,qaqortoq,60.7167,-46.0333,-9.89,75,7,2.12,GL,1712116586
291,itoman,26.1247,127.6694,27.21,87,75,9.26,JP,1712116587
292,nushki,29.5542,66.0215,17.88,22,4,2.93,PK,1712116589
293,malanje,-9.5402,16.341,18.06,97,98,0.63,AO,1712116590
294,santa cruz,-17.8,-63.1667,24.7,94,75,4.12,BO,1712116479
295,siwa oasis,29.2041,25.5195,18.87,33,0,2.72,EG,1712116592
296,bomdila,27.25,92.4,15.53,48,39,2.53,IN,1712116593
297,taguatinga,-12.3857,-46.5711,24.45,80,76,0.5,BR,1712116594
298,masterton,-40.9597,175.6575,17.71,53,11,3.46,NZ,1712116595
299,torghay,49.6339,63.4981,7.86,71,39,1.67,KZ,1712116596
300,le port,-20.9373,55.2919,26.0,78,45,3.87,RE,1712116597
301,luganville,-15.5333,167.1667,28.53,81,100,4.77,VU,1712116598
302,yemel'yanovo,56.1681,92.6767,3.45,87,40,4.0,RU,1712116599
303,polyarnyy,69.1989,33.4478,-18.73,100,79,2.7,RU,1712116600
304,keren,15.7778,38.4581,22.24,20,94,1.3,ER,1712116601
305,shevchenko,48.5,35.0,10.89,66,62,6.24,UA,1712116318
306,fort bragg,35.139,-79.006,23.91,64,75,5.66,US,1712116603
307,port augusta,-32.5,137.7667,21.79,44,35,6.61,AU,1712116524
308,estes park,40.3772,-105.5217,5.47,77,32,4.76,US,1712116605
309,semnan,35.5729,53.3971,11.99,33,100,0.21,IR,1712116606
310,soio,-6.1349,12.3689,27.04,90,100,1.99,AO,1712116607
311,tazacorte,28.629,-17.9293,18.54,81,100,1.79,ES,1712116608
312,isla mujeres,21.2311,-86.731,27.87,88,35,6.69,MX,1712116609
313,makubetsu,45.3714,141.8211,6.84,65,40,7.2,JP,1712116611
314,nasiriyah,31.0521,46.261,23.08,24,94,3.48,IQ,1712116612
315,malaba,0.6346,34.2756,18.86,95,99,1.0,KE,1712116613
316,lospalos,-8.5186,127.0025,27.3,79,85,2.2,TL,1712116614
317,ylojarvi,61.5563,23.5961,-2.43,73,100,12.07,FI,1712116615
318,petropavlovsk-kamchatsky,53.0452,158.6483,3.33,82,40,5.36,RU,1712116616
319,shache,38.4167,77.2406,14.4,18,100,2.83,CN,1712116617
320,aldinga beach,-35.2793,138.4604,20.42,56,46,3.84,AU,1712116618
321,westport,41.1415,-73.3579,7.27,87,100,8.75,US,1712116619
322,longboat key,27.4125,-82.659,24.44,72,0,6.17,US,1712116620
323,goundam,16.4145,-3.6708,30.32,16,1,3.58,ML,1712116621
324,quellon,-43.1167,-73.6167,7.27,90,100,3.93,CL,1712116622
325,thinadhoo,0.5333,72.9333,29.0,72,63,2.04,MV,1712116624
326,al kharijah,25.4514,30.5464,20.79,33,0,4.14,EG,1712116625
327,ipatovo,45.7181,42.9036,11.63,76,100,4.46,RU,1712116626
328,tupiza,-21.45,-65.7167,16.93,62,17,3.5,BO,1712116627
329,gerash,27.6652,54.1371,19.79,45,44,1.72,IR,1712116628
330,breyten,-26.3018,29.987,11.69,94,56,2.46,ZA,1712116630
331,cozumel,20.5083,-86.9458,26.64,89,10,5.3,MX,1712116422
332,emure-ekiti,7.4361,5.4593,24.77,91,100,2.53,NG,1712116632
333,broome,42.2506,-75.833,6.5,93,100,6.17,US,1712116634
334,akureyri,65.6835,-18.0878,-15.04,78,0,3.09,IS,1712116635
335,cambria,35.5641,-121.0808,17.41,93,0,2.68,US,1712116636
336,pangody,65.85,74.4859,-10.39,88,100,12.23,RU,1712116638
337,robore,-18.3333,-59.75,25.06,83,59,2.0,BO,1712116639
338,kirensk,57.7853,108.1119,-2.24,82,95,2.68,RU,1712116640
339,agacoren,38.8748,33.9167,12.8,43,81,2.09,TR,1712116641
340,las khorey,11.1595,48.1967,27.85,80,63,2.45,SO,1712116476
341,gamboma,-1.8764,15.8644,23.27,86,59,0.38,CG,1712116643
342,queenstown,-31.8976,26.8753,12.62,87,88,0.34,ZA,1712116644
343,illela,13.7292,5.2975,27.35,14,88,1.26,NG,1712116645
344,floro,61.5996,5.0328,2.04,60,99,5.14,NO,1712116646
345,acara,-1.9608,-48.1967,23.63,99,100,0.64,BR,1712116647
346,mount pearl,47.5166,-52.7813,0.64,92,75,10.29,CA,1712116567
347,arno,60.1167,18.6333,-1.23,82,100,12.45,SE,1712116649
348,ola,59.5833,151.2833,-0.62,59,0,3.59,RU,1712116650
349,blairgowrie,56.5916,-3.3405,6.08,91,100,4.79,GB,1712116651
350,bougouni,11.417,-7.479,33.71,23,87,2.3,ML,1712116652
351,hotan,37.0997,79.9269,13.86,22,99,6.14,CN,1712116653
352,bairnsdale,-37.8333,147.6167,17.25,78,79,1.79,AU,1712116654
353,ulanhot,46.0833,122.0833,7.67,16,19,7.91,CN,1712116655
354,ha'il,27.5219,41.6907,16.01,63,0,0.0,SA,1712116656
355,la ronge,55.1001,-105.2842,5.14,52,75,3.6,CA,1712116657
356,christchurch,-43.5333,172.6333,21.41,59,73,5.14,NZ,1712116592
357,st. john's,47.5649,-52.7093,1.1,92,75,10.29,CA,1712116659
358,contai,21.7786,87.7536,32.76,51,41,2.55,IN,1712116660
359,yaya,56.206,86.44,0.8,96,100,3.94,RU,1712116661
360,meadow lake,34.8014,-106.5436,11.37,32,3,2.78,US,1712116662
361,tazovsky,67.4667,78.7,-2.49,95,100,8.35,RU,1712116663
362,murzuq,25.9155,13.9184,20.23,22,0,4.11,LY,1712116664
363,rabaul,-4.1967,152.1721,29.03,68,37,1.92,PG,1712116665
364,saint-pierre,-21.3393,55.4781,25.82,65,0,10.29,RE,1712116668
365,camacupa,-12.0167,17.4833,16.58,98,100,0.64,AO,1712116670
366,okhotsk,59.3833,143.3,-1.06,71,10,5.99,RU,1712116670
367,baruun-urt,46.6806,113.2792,-0.24,25,2,5.97,MN,1712116671
368,kargasok,59.0556,80.8572,0.54,100,100,1.79,RU,1712116672
369,malabar,-33.9667,151.25,26.11,65,40,6.69,AU,1712116673
370,verkhniye kigi,55.4083,58.6044,5.27,88,18,4.88,RU,1712116675
371,nova vicosa,-17.8919,-39.3719,25.42,85,95,1.01,BR,1712116676
372,alexandria,31.2156,29.9553,16.3,75,0,2.7,EG,1712116618
373,tatarsk,55.219,75.9828,1.37,89,100,5.63,RU,1712116678
374,rampur,28.8167,79.0333,24.28,13,87,4.16,IN,1712116679
375,puerto aysen,-45.4,-72.7,4.62,100,100,2.17,CL,1712116680
376,veinticinco de mayo,-35.4323,-60.1727,14.99,86,54,0.89,AR,1712116627
377,magistral'nyy,56.1725,107.4458,-3.13,77,67,2.96,RU,1712116392
378,flying fish cove,-10.4217,105.6791,28.82,83,75,6.17,CX,1712116683
379,inirida,3.8653,-67.9239,24.27,93,29,0.97,CO,1712116684
380,laojunmiao,39.8333,97.7333,6.26,46,66,3.2,CN,1712116685
381,pontes e lacerda,-15.2261,-59.3353,23.24,94,80,1.06,BR,1712116686
382,kazerun,29.6195,51.6541,19.24,46,21,0.39,IR,1712116687
383,kokshetau,53.2775,69.3883,3.18,75,0,7.0,KZ,1712116688
384,kaolack,14.1825,-16.2533,27.03,35,2,6.69,SN,1712116614
385,zouerate,22.7187,-12.4521,21.22,23,0,5.88,MR,1712116690
386,sejny,54.108,23.347,3.19,80,100,9.02,PL,1712116691
387,saint-denis,48.9167,2.3333,10.77,94,100,5.66,FR,1712116692
388,dili,-8.5586,125.5736,28.04,87,66,4.67,TL,1712116693
389,cururupu,-1.8283,-44.8683,24.5,97,96,0.72,BR,1712116694
390,kamba,11.8486,3.6576,29.91,26,45,1.78,NG,1712116695
391,kayenta,36.7278,-110.2546,9.93,30,0,2.13,US,1712116696
392,touros,-5.1989,-35.4608,26.88,85,60,3.31,BR,1712116562
393,lincoln city,44.9582,-124.0179,11.5,96,100,7.6,US,1712116683
394,taltal,-25.4,-70.4833,17.9,87,34,0.82,CL,1712116699
395,lamu,-2.2717,40.902,27.14,83,100,2.93,KE,1712116701
396,coquimbo,-29.9533,-71.3436,14.85,88,0,3.09,CL,1712116580
397,hoemul-li,41.4339,129.67,9.06,57,100,2.25,KP,1712116703
398,ambovombe,-25.1667,46.0833,21.56,87,0,5.46,MG,1712116704
399,sorong,-0.8833,131.25,28.56,76,67,3.9,ID,1712116705
400,mersrags,57.3354,23.1246,2.28,96,100,6.63,LV,1712116706
401,antsiranana,-12.2787,49.2917,25.42,94,40,0.0,MG,1712116707
402,mamu kanjan,30.8333,72.8,28.11,19,38,2.58,PK,1712116708
403,boa vista,2.8197,-60.6733,30.99,51,82,4.12,BR,1712116709
404,aldan,58.6031,125.3894,-2.78,91,100,5.7,RU,1712116710
405,teno,-34.8667,-71.1833,14.75,100,100,2.06,CL,1712116616
406,tierralta,8.1736,-76.0592,25.78,84,100,2.91,CO,1712116712
407,ballito,-29.539,31.2144,22.08,78,75,3.09,ZA,1712116713
408,vila velha,-20.3297,-40.2925,25.97,92,0,0.51,BR,1712116571
409,fortuna,40.5982,-124.1573,11.31,96,100,2.57,US,1712116715
410,chibougamau,49.9168,-74.3659,-3.21,68,0,2.57,CA,1712116716
411,arar,30.9753,41.0381,17.01,25,0,2.57,SA,1712116717
412,uliastay,47.7417,96.8444,4.94,34,88,1.93,MN,1712116718
413,karratha,-20.7377,116.8463,36.3,26,25,11.34,AU,1712116635
414,ha tinh,18.3333,105.9,37.8,33,4,2.85,VN,1712116514
415,san patricio,28.017,-97.5169,22.13,41,0,5.88,US,1712116723
416,santa cecilia,-26.9608,-50.4269,14.36,93,3,0.85,BR,1712116724
417,saint-joseph,-21.3667,55.6167,25.21,80,98,6.79,RE,1712116725
418,sensuntepeque,13.8667,-88.6333,21.24,78,0,0.5,SV,1712116726
419,presidencia de la plaza,-27.0015,-59.8424,23.73,82,4,2.34,AR,1712116728
420,upata,8.0086,-62.3989,23.64,88,93,2.42,VE,1712116729
421,yandev,7.3667,9.05,26.59,78,98,4.93,NG,1712116730
422,callao,-12.0667,-77.15,24.84,73,0,3.6,PE,1712116449
423,mangrol,21.1167,70.1167,27.32,57,39,4.19,IN,1712116732
424,mokolo,10.7398,13.8019,26.78,16,12,2.32,CM,1712116733
425,puerto armuelles,8.2833,-82.8667,28.94,54,11,0.45,PA,1712116476
426,montepuez,-13.1256,38.9997,20.04,98,96,1.51,MZ,1712116735
427,akrehamn,59.2667,5.1833,5.79,93,100,3.6,NO,1712116736
428,lerwick,60.1545,-1.1494,4.0,58,100,12.06,GB,1712116737
429,richards bay,-28.783,32.0377,22.14,92,70,5.4,ZA,1712116739
430,port macquarie,-31.4333,152.9167,26.05,54,55,4.72,AU,1712116741
431,swakopmund,-22.6833,14.5333,15.55,89,1,1.34,NA,1712116742
432,ryotsu-minato,38.0833,138.4333,12.64,58,100,1.51,JP,1712116743
433,cill airne,52.05,-9.5167,7.87,93,100,1.04,IE,1712116744
434,ghat,24.9647,10.1728,22.61,13,0,2.21,LY,1712116745
435,fort stockton,30.894,-102.8793,13.75,39,23,3.8,US,1712116746
436,thunder bay,48.4001,-89.3168,4.99,38,100,6.17,CA,1712116318
437,kilindoni,-7.9139,39.6668,26.62,88,100,4.88,TZ,1712116748
438,noshiro,40.2039,140.0242,11.46,44,100,1.15,JP,1712116749
439,revda,56.801,59.9303,5.06,92,98,5.54,RU,1712116750
440,shakawe,-18.3667,21.85,20.98,76,95,2.06,BW,1712116751
441,cockburn town,21.4612,-71.1419,25.17,73,27,8.47,TC,1712116558
442,laminusa,5.5549,120.9136,27.95,75,2,2.94,PH,1712116753
443,yemetsk,63.4721,41.7941,-7.6,87,100,5.0,RU,1712116754
444,waingapu,-9.6567,120.2641,29.01,74,100,1.71,ID,1712116756
445,dahab,28.501,34.5134,25.31,42,0,3.27,EG,1712116757
446,funafuti,-8.5243,179.1942,32.0,74,75,1.54,TV,1712116758
447,bayanaul,50.7889,75.6956,2.15,67,92,2.25,KZ,1712116760
448,mouila,-1.8685,11.0559,23.52,98,100,0.59,GA,1712116761
449,aquin,18.2833,-73.4,24.78,82,55,1.87,HT,1712116762
450,matamba,-8.9833,33.9667,12.11,95,47,1.94,TZ,1712116763
451,sao vicente,-23.9631,-46.3919,28.1,26,38,0.89,BR,1712116583
452,qamdo,31.1667,97.2333,1.65,59,99,2.47,CN,1712116765
453,seryshevo,51.0933,128.3786,4.89,48,49,4.58,RU,1712116769
454,makoua,0.0069,15.6333,22.61,94,96,0.96,CG,1712116770
455,nieuw amsterdam,5.8833,-55.0833,26.09,84,22,4.49,SR,1712116772
456,freetown,8.484,-13.2299,27.84,61,0,3.09,SL,1712116773
457,bandarbeyla,9.4942,50.8122,28.12,65,41,4.11,SO,1712116774
458,kidal,18.4411,1.4078,29.17,14,92,4.69,ML,1712116775
459,prince george,53.9166,-122.753,8.69,34,100,6.17,CA,1712116658
460,hilo,19.7297,-155.09,23.85,82,20,5.14,US,1712116566
461,bol,13.4586,14.7147,26.74,39,12,6.06,TD,1712116778
462,salekhard,66.53,66.6019,-16.52,81,3,5.67,RU,1712116779
463,harper,4.375,-7.7169,27.5,89,82,3.48,LR,1712116780
464,vernon,50.2581,-119.2691,20.2,60,100,1.54,CA,1712116614
465,recani,31.2846,-4.2688,17.87,19,35,1.78,MA,1712116782
466,pedernales,18.0384,-71.744,25.57,72,58,2.33,DO,1712116783
467,porto novo,6.4965,2.6036,24.9,83,85,3.4,BJ,1712116784
468,bahia de kino,28.8333,-111.9333,18.34,66,1,8.5,MX,1712116785
469,namtsy,62.7161,129.6658,-3.33,82,96,5.65,RU,1712116786
470,pangkalanbuun,-2.6833,111.6167,30.25,77,80,1.2,ID,1712116787
471,megion,61.0296,76.1136,2.01,100,100,7.15,RU,1712116788
472,bengkulu,-3.8004,102.2655,29.93,70,48,2.57,ID,1712116789
473,kamennogorsk,60.9545,29.1339,-2.47,93,100,6.61,RU,1712116790
474,abbeville,50.1,1.8333,10.83,93,100,6.0,FR,1712116791
475,ataq,14.5377,46.8319,22.55,53,98,2.86,YE,1712116792
476,jiangzi,28.95,89.6333,4.6,30,100,2.57,CN,1712116793
477,sardarshahr,28.4333,74.4833,29.79,13,100,5.4,IN,1712116795
478,oleksandriya,48.6696,33.1159,10.01,66,100,7.38,UA,1712116796
479,hlinsko,49.7621,15.9076,5.89,75,10,8.05,CZ,1712116797
480,sarmiento,-45.5882,-69.07,7.5,47,86,15.64,AR,1712116511
481,ishigaki,24.3448,124.1572,29.07,79,40,8.23,JP,1712116799
482,holly springs,35.6513,-78.8336,23.28,68,95,2.24,US,1712116649
483,checy,47.894,2.023,10.12,94,100,5.24,FR,1712116801
484,antigo,45.1402,-89.1523,0.4,100,100,11.32,US,1712116804
485,marathon,44.9,-89.7668,0.86,90,100,9.77,US,1712116807
486,luanda,-8.8368,13.2343,27.0,90,40,1.54,AO,1712116810
487,vidor,30.1316,-94.0155,17.01,68,0,6.22,US,1712116812
488,taunggyi,20.7833,97.0333,29.89,24,0,2.93,MM,1712116813
489,ilha de mocambique,-15.0342,40.7358,26.43,83,84,3.69,MZ,1712116815
490,crane,31.3974,-102.3501,14.25,21,41,4.1,US,1712116816
491,ruteng,-8.6136,120.4721,23.15,75,86,0.71,ID,1712116817
492,tres passos,-27.4556,-53.9319,19.28,85,12,1.96,BR,1712116582
493,vylkove,45.4021,29.586,10.05,62,26,2.9,UA,1712116819
494,berdsk,54.7551,83.0967,1.78,91,100,3.07,RU,1712116820
495,gunnedah,-30.9833,150.25,26.64,19,89,2.64,AU,1712116821
496,dalandzadgad,43.5708,104.425,7.96,36,100,6.68,MN,1712116822
497,labrador city,52.9463,-66.9114,-1.05,74,100,3.6,CA,1712116823
498,betio village,1.358,172.9211,29.02,76,100,4.09,KI,1712116825
499,caribou,46.8606,-68.012,0.92,73,0,2.57,US,1712116608
500,island harbour,50.724,-1.2758,11.75,93,100,3.13,GB,1712116827
501,gubkinskiy,64.434,76.5026,-0.77,87,100,11.87,RU,1712116828
502,dangriga,16.9692,-88.2321,26.72,89,1,2.79,BZ,1712116764
503,dzhangala,49.2167,50.3333,10.99,59,0,5.19,KZ,1712116831
504,whangarei,-35.7317,174.3239,22.58,50,27,2.11,NZ,1712116832
505,kantunilkin,21.0917,-87.45,24.54,93,24,3.25,MX,1712116606
506,jalgaon jamod,21.0486,76.5344,34.0,19,89,2.95,IN,1712116834
507,villa la angostura,-40.7617,-71.6463,3.93,100,100,2.58,AR,1712116835
508,saint-jean-de-monts,46.7833,-2.0667,12.4,88,100,12.05,FR,1712116836
509,ad darb,17.7229,42.2526,28.34,56,100,1.99,SA,1712116837
510,urcos,-13.6861,-71.6228,10.94,93,97,2.09,PE,1712116838
511,stornoway,58.2093,-6.3865,5.98,84,100,11.83,GB,1712116839
512,nuevo ideal,24.8875,-105.0728,8.41,36,0,2.47,MX,1712116840
513,hammerfest,70.6634,23.6821,-8.75,79,20,4.12,NO,1712116841
514,moscow,55.7522,37.6156,14.24,72,100,5.51,RU,1712116208
515,tindouf,27.6711,-8.1474,15.21,48,0,4.49,DZ,1712116844
516,laguna,38.421,-121.4238,20.99,56,0,2.57,US,1712116682
517,mount isa,-20.7333,139.5,31.87,43,10,3.6,AU,1712116846
518,khanty-mansiysk,61.0042,69.0019,4.06,87,0,3.0,RU,1712116847
519,rafaela,-31.2503,-61.4867,19.44,77,100,0.45,AR,1712116759
520,holualoa,19.6228,-155.9522,24.91,93,75,5.14,US,1712116724
521,vila franca do campo,37.7167,-25.4333,18.27,99,75,7.07,PT,1712116850
522,gatesville,31.4352,-97.7439,13.38,83,0,2.06,US,1712116792
523,viedma,-40.8135,-62.9967,17.09,31,99,6.83,AR,1712116852
524,ingeniero jacobacci,-41.3427,-69.5448,5.8,72,2,11.21,AR,1712116853
525,vanino,49.0869,140.2543,6.07,49,74,0.76,RU,1712116854
526,vilyuchinsk,52.9306,158.4028,4.15,80,97,3.55,RU,1712116855
527,marineo,37.95,13.4169,11.34,24,95,1.44,IT,1712116857
528,la mira,18.035,-102.3266,22.72,88,9,1.17,MX,1712116858
529,preston,53.7667,-2.7167,9.81,95,100,5.16,GB,1712116859
530,parana,-31.732,-60.5238,19.75,91,30,3.64,AR,1712116833
531,iguape,-24.7081,-47.5553,24.26,91,26,3.16,BR,1712116861
532,sokhumi,43.0033,41.0153,16.43,59,100,2.59,GE,1712116863
533,ondjiva,-17.0667,15.7333,20.02,88,0,1.03,AO,1712116865
534,semporna,4.4818,118.6112,29.99,64,100,2.41,MY,1712116866
535,makinsk,52.6292,70.4169,0.71,85,88,4.98,KZ,1712116867
536,dunedin,-45.8742,170.5036,14.33,88,89,1.34,NZ,1712116828
537,ramon castilla,-4.2569,-69.9594,25.14,100,0,0.0,PE,1712116869
538,guane,22.2025,-84.0875,25.08,89,31,4.48,CU,1712116870
539,andergrove,-21.0833,149.1833,27.11,72,30,5.73,AU,1712116871
540,atamyrat,37.8357,65.2106,15.35,26,7,1.41,TM,1712116872
541,tofol,5.3248,163.0078,28.17,72,82,7.46,FM,1712116873
542,dongsheng,39.8161,109.9776,10.16,31,98,1.87,CN,1712116874
543,qoryooley,1.7878,44.53,28.2,74,67,2.16,SO,1712116875
544,zaozersk,69.4005,32.4476,-18.6,99,69,2.15,RU,1712116876
545,modimolle,-24.7,28.4,16.46,64,7,1.37,ZA,1712116877
546,yanykurgan,43.915,67.2481,14.33,34,14,2.46,KZ,1712116878
547,nasarawa,8.5294,7.7242,27.35,75,97,1.63,NG,1712116879
548,miyoshi,35.0833,137.0667,14.23,87,100,4.01,JP,1712116881
549,la carolina,38.2756,-3.6153,8.81,93,68,0.85,ES,1712116882
550,alaghsas,17.0187,8.0168,27.83,8,91,4.92,NE,1712116883
551,machilipatnam,16.1667,81.1333,31.67,59,28,4.6,IN,1712116884
552,niquero,20.0431,-77.5828,24.62,83,21,3.47,CU,1712116885
553,nsanje,-16.92,35.262,22.28,99,58,0.85,MW,1712116886
554,jaisinghnagar,23.7,81.3833,33.12,16,92,1.27,IN,1712116887
555,shuangjiang,26.1547,109.7138,24.41,79,69,0.56,CN,1712116888
556,hagere maryam,5.6333,38.2333,15.55,95,100,0.68,ET,1712116889
557,itati,-27.2704,-58.2446,23.97,78,4,4.12,AR,1712116890
558,arauquita,7.0292,-71.4281,24.41,83,61,1.32,CO,1712116891
559,sainte-anne-des-monts,49.124,-66.4924,-0.07,93,19,1.54,CA,1712116892
560,faya-largeau,17.9257,19.1043,24.52,14,46,6.98,TD,1712116894
561,mili,6.0815,171.735,27.87,79,71,8.18,MH,1712116895
562,villamontes,-21.25,-63.5,21.8,91,66,0.42,BO,1712116896
563,wuhai,39.6647,106.8122,11.72,29,100,1.1,CN,1712116897
564,luena,-11.7833,19.9167,19.1,100,100,1.54,AO,1712116898
565,prince albert,53.2001,-105.7677,4.97,65,75,4.12,CA,1712116879
566,dzhalagash,45.0833,64.6667,11.99,42,0,4.93,KZ,1712116900
567,ghadamis,30.1337,9.5007,18.54,40,0,7.48,LY,1712116901
568,palanga,55.9175,21.0686,3.01,100,100,5.14,LT,1712116902
569,caratinga,-19.7897,-42.1392,20.63,96,100,0.81,BR,1712116666
570,chernyshevskiy,63.0128,112.4714,-3.85,88,100,5.56,RU,1712116904
571,lijiang,26.8688,100.2207,18.63,35,2,2.78,CN,1712116905
